Suburb,Address,Rooms,Type,Price,Method,SellerG,Date,Distance,Postcode,Bedroom2,Bathroom,Car,Landsize,BuildingArea,Ratio,YearBuilt,x,Y,CouncilArea,Latitude,Longitude,Regionname,Propertycount
Abbotsford,3/72 Charles St,4,House,1330000,PI,Kay,18/03/2017,2.5,3067,4,2,2,780,135,0.173076923,1900,City of ,Yarra,City of Yarra,-37.8073,144.9952,Northern Metropolitan,4019
Abbotsford,138/56 Nicholson St,3,Unit,1090000,S,Jellis,18/03/2017,2.5,3067,3,2,2,4290,27,0.006293706,,City of ,Yarra,City of Yarra,-37.8078,144.9965,Northern Metropolitan,4019
Abbotsford,166 Gipps St,3,House,1290000,S,Biggin,25/02/2017,2.5,3067,3,2,2,147,18,0.12244898,,City of ,Yarra,City of Yarra,-37.805,144.9943,Northern Metropolitan,4019
Abbotsford,60 Stafford St,3,House,1290000,S,Biggin,25/02/2017,2.5,3067,3,1,1,168,124,0.738095238,1950,City of ,Yarra,City of Yarra,-37.8007,144.9958,Northern Metropolitan,4019
Abbotsford,47 Studley St,2,House,1180000,S,Jellis,27/11/2016,2.5,3067,2,1,0,162,91,0.561728395,1900,City of ,Yarra,City of Yarra,-37.8016,144.9956,Northern Metropolitan,4019
Abbotsford,49 Park St,2,House,1315000,S,Marshall,19/11/2016,2.5,3067,2,1,0,147,85,0.578231293,1900,City of ,Yarra,City of Yarra,-37.808,144.994,Northern Metropolitan,4019
Abbotsford,40 Nicholson St,3,House,1350000,VB,Nelson,12/11/2016,2.5,3067,3,2,2,214,190,0.887850467,2005,City of ,Yarra,City of Yarra,-37.8085,144.9964,Northern Metropolitan,4019
Abbotsford,16 William St,2,House,1310000,S,Jellis,15/10/2016,2.5,3067,2,1,2,238,97,0.407563025,1890,City of ,Yarra,City of Yarra,-37.809,144.9976,Northern Metropolitan,4019
Abbotsford,98 Charles St,2,House,1636000,S,Nelson,8/10/2016,2.5,3067,2,1,2,256,107,0.41796875,1890,City of ,Yarra,City of Yarra,-37.806,144.9954,Northern Metropolitan,4019
Abbotsford,10 Valiant St,2,House,1097000,S,Biggin,8/10/2016,2.5,3067,3,1,2,220,75,0.340909091,1900,City of ,Yarra,City of Yarra,-37.801,144.9989,Northern Metropolitan,4019
Abbotsford,42 Valiant St,2,House,890000,S,Biggin,17/09/2016,2.5,3067,2,1,1,150,73,0.486666667,1985,City of ,Yarra,City of Yarra,-37.8011,145.0004,Northern Metropolitan,4019
Abbotsford,27 Charles St,2,House,1030000,S,Biggin,30/07/2016,2.5,3067,2,1,1,172,81,0.470930233,1930,City of ,Yarra,City of Yarra,-37.8086,144.9946,Northern Metropolitan,4019
Abbotsford,42 Henry St,3,House,1200000,S,Jellis,16/07/2016,2.5,3067,3,2,1,113,110,0.973451327,1880,City of ,Yarra,City of Yarra,-37.8056,144.993,Northern Metropolitan,4019
Abbotsford,78 Yarra St,3,House,1176500,S,LITTLE,16/07/2016,2.5,3067,2,1,1,138,105,0.760869565,1890,City of ,Yarra,City of Yarra,-37.8021,144.9965,Northern Metropolitan,4019
Abbotsford,200 Nicholson St,2,House,1012500,S,Nelson,28/05/2016,2.5,3067,2,1,0,182,82,0.450549451,1900,City of ,Yarra,City of Yarra,-37.8021,144.9976,Northern Metropolitan,4019
Abbotsford,124 Yarra St,3,House,1876000,S,Nelson,7/05/2016,2.5,3067,4,2,0,245,210,0.857142857,1910,City of ,Yarra,City of Yarra,-37.8024,144.9993,Northern Metropolitan,4019
Abbotsford,25 Bloomburg St,2,House,1035000,S,Biggin,4/02/2016,2.5,3067,2,1,0,156,79,0.506410256,1900,City of ,Yarra,City of Yarra,-37.8079,144.9934,Northern Metropolitan,4019
Abbotsford,132 Vere St,3,House,1000000,SP,Biggin,8/04/2017,2.5,3067,3,1,0,198,98,0.494949495,1900,City of ,Yarra,City of Yarra,-37.8025,144.9939,Northern Metropolitan,4019
Abbotsford,24 Cooke St,2,House,1050000,S,Jellis,29/04/2017,2.5,3067,2,1,0,129,128,0.992248062,1890,City of ,Yarra,City of Yarra,-37.8099,145.0027,Northern Metropolitan,4019
Abbotsford,198 Gipps St,2,House,1242000,S,Nelson,29/04/2017,2.5,3067,2,1,1,249,98,0.393574297,1940,City of ,Yarra,City of Yarra,-37.8052,144.9963,Northern Metropolitan,4019
Abbotsford,5/29 Church St,2,Unit,480000,S,hockingstuart,17/06/2017,3,3067,2,1,1,601,64,0.106489185,1970,City of ,Yarra,City of Yarra,-37.80915,145.00066,Northern Metropolitan,4019
Abbotsford,14/205 Gipps St,2,Unit,750000,SP,Jellis,17/06/2017,3,3067,2,1,1,2379,69,0.029003783,2013,City of ,Yarra,City of Yarra,-37.80554,144.99612,Northern Metropolitan,4019
Abbotsford,67 Yarra St,3,House,1402500,S,Jellis,27/05/2017,3,3067,3,1,1,270,101,0.374074074,1960,City of ,Yarra,City of Yarra,-37.8023,144.99615,Northern Metropolitan,4019
Abbotsford,143 Charles St,3,House,1635000,S,Nelson,12/08/2017,3,3067,3,1,0,142,130,0.915492958,1880,City of ,Yarra,City of Yarra,-37.80359,144.99538,Northern Metropolitan,4019
Abbotsford,60 Charles St,3,House,1370000,S,Jellis,7/10/2017,3,3067,3,1,,192,109,0.567708333,1900,City of ,Yarra,City of Yarra,-37.80792,144.99508,Northern Metropolitan,4019
Abbotsford,38 Studley St,3,House,1240000,S,Nelson,7/10/2017,3,3067,3,1,1,159,93,0.58490566,1890,City of ,Yarra,City of Yarra,-37.80124,144.99459,Northern Metropolitan,4019
Abbotsford,44 Lulie St,2,House,970000,S,Nelson,9/12/2017,3,3067,2,1,,105,85,0.80952381,1890,City of ,Yarra,City of Yarra,-37.79644,144.99578,Northern Metropolitan,4019
Abbotsford,31 Park St,3,House,1200000,S,Biggin,17/02/2018,3,3067,3,1,1,211,93,0.440758294,1970,City of ,Yarra,City of Yarra,-37.80864,144.99386,Northern Metropolitan,4019
Aberfeldie,126 The Boulevard,4,House,3900000,S,Nelson,10/12/2016,9.1,3040,4,4,4,670,375,0.559701493,2010,City of ,Moonee Valley,City of Moonee Valley,-37.7637,144.8931,Western Metropolitan,1543
Aberfeldie,2 May St,4,House,1200000,VB,Nelson,19/11/2016,9.1,3040,4,2,2,578,35,0.060553633,2010,City of ,Moonee Valley,City of Moonee Valley,-37.7614,144.8953,Western Metropolitan,1543
Aberfeldie,5 Aroona Ct,1,House,1720000,PI,Nelson,15/10/2016,9.1,3040,3,2,1,676,136,0.201183432,1965,City of ,Moonee Valley,City of Moonee Valley,-37.7632,144.898,Western Metropolitan,1543
Aberfeldie,25 Beaver St,2,House,1705000,S,Nelson,15/10/2016,9.1,3040,2,1,2,809,131,0.161928307,1980,City of ,Moonee Valley,City of Moonee Valley,-37.7587,144.9015,Western Metropolitan,1543
Aberfeldie,21 May St,4,House,1346000,S,Nelson,8/10/2016,9.1,3040,2,2,2,559,204,0.364937388,1995,City of ,Moonee Valley,City of Moonee Valley,-37.7614,144.8925,Western Metropolitan,1543
Aberfeldie,1 Chisholm St,3,Unit,726000,S,Barry,24/09/2016,9.1,3040,3,1,1,229,111,0.484716157,1996,City of ,Moonee Valley,City of Moonee Valley,-37.7606,144.8973,Western Metropolitan,1543
Aberfeldie,4 Brunel Ct,3,House,1190000,S,Barry,17/09/2016,9.1,3040,3,1,1,465,115,0.247311828,1950,City of ,Moonee Valley,City of Moonee Valley,-37.7626,144.8954,Western Metropolitan,1543
Aberfeldie,2/30 Caroline St,3,Townhouse,935000,SP,Nelson,10/09/2016,9.1,3040,3,2,2,217,149,0.686635945,2005,City of ,Moonee Valley,City of Moonee Valley,-37.7591,144.8923,Western Metropolitan,1543
Aberfeldie,29 Beaver St,5,House,1740000,S,Nelson,18/06/2016,9.1,3040,3,3,2,839,247,0.294398093,1925,City of ,Moonee Valley,City of Moonee Valley,-37.759,144.9015,Western Metropolitan,1543
Aberfeldie,47 Clifton St,4,House,1350000,S,Nelson,28/05/2016,9.1,3040,3,2,2,1076,180,0.167286245,1960,City of ,Moonee Valley,City of Moonee Valley,-37.7609,144.8905,Western Metropolitan,1543
Aberfeldie,40 Clifton St,4,House,1646000,S,Rendina,4/03/2017,9.1,3040,4,3,2,757,157,0.207397622,1950,City of ,Moonee Valley,City of Moonee Valley,-37.7606,144.8909,Western Metropolitan,1543
Aberfeldie,2 May St,4,House,1150000,PI,Nelson,11/02/2017,9.1,3040,4,2,2,578,35,0.060553633,2010,City of ,Moonee Valley,City of Moonee Valley,-37.7614,144.8953,Western Metropolitan,1543
Aberfeldie,11 Muldowney St,3,Townhouse,1300000,SP,Barry,25/02/2017,9.1,3040,3,3,1,593,205,0.345699831,2016,City of ,Moonee Valley,City of Moonee Valley,-37.7584,144.8968,Western Metropolitan,1543
Aberfeldie,8/257 Buckley St,2,Unit,470000,S,Brad,7/05/2016,9.1,3040,2,1,1,976,71,0.072745902,2000,City of ,Moonee Valley,City of Moonee Valley,-37.7557,144.9037,Western Metropolitan,1543
Aberfeldie,2/65 Clifton St,3,House,1300000,S,Nelson,8/04/2017,9.1,3040,3,3,2,240,240,1,2013,City of ,Moonee Valley,City of Moonee Valley,-37.762,144.8916,Western Metropolitan,1543
Aberfeldie,2 Derry St,4,House,1740000,PI,Nelson,29/04/2017,9.1,3040,4,2,2,746,161,0.215817694,1950,City of ,Moonee Valley,City of Moonee Valley,-37.7595,144.8993,Western Metropolitan,1543
Aberfeldie,5 Rita St,5,House,2905000,S,Rendina,27/05/2017,7.5,3040,5,3,2,557,364,0.653500898,2010,City of ,Moonee Valley,City of Moonee Valley,-37.76181,144.89327,Western Metropolitan,1543
Aberfeldie,5 Aroona Ct,3,House,1680000,SP,Raine,22/07/2017,7.5,3040,3,2,2,673,136,0.202080238,1965,City of ,Moonee Valley,City of Moonee Valley,-37.76316,144.89799,Western Metropolitan,1543
Aberfeldie,1 Alma St,4,House,1436000,S,Brad,3/09/2017,7.5,3040,4,3,3,511,187,0.365949119,1922,City of ,Moonee Valley,City of Moonee Valley,-37.75788,144.90487,Western Metropolitan,1543
Aberfeldie,13 Valencia St,4,House,1650000,SP,Barry,16/09/2017,7.5,3040,4,2,1,484,186,0.384297521,1950,City of ,Moonee Valley,City of Moonee Valley,-37.7609,144.89886,Western Metropolitan,1543
Aberfeldie,10 Caroline St,5,House,1830000,S,Rendina,23/09/2017,7.5,3040,5,4,4,730,373,0.510958904,2014,City of ,Moonee Valley,City of Moonee Valley,-37.7595,144.89427,Western Metropolitan,1543
Aberfeldie,22 Aberfeldie St,4,House,2600000,S,Nelson,21/10/2017,7.5,3040,4,2,4,923,228,0.247020585,1925,City of ,Moonee Valley,City of Moonee Valley,-37.75923,144.90527,Western Metropolitan,1543
Aberfeldie,48 Fawkner St,4,House,1905000,SP,Brad,21/10/2017,7.5,3040,4,2,2,797,26,0.032622334,1930,City of ,Moonee Valley,City of Moonee Valley,-37.75857,144.89572,Western Metropolitan,1543
Aberfeldie,1A Vida St,3,Townhouse,1150000,S,Barry,11/11/2017,7.5,3040,3,2,1,224,193,0.861607143,2013,City of ,Moonee Valley,City of Moonee Valley,-37.7556,144.899,Western Metropolitan,1543
Aberfeldie,2 Knight St,5,House,1825000,VB,Nelson,18/11/2017,7.5,3040,5,2,2,691,301,0.435600579,1925,City of ,Moonee Valley,City of Moonee Valley,-37.756,144.9002,Western Metropolitan,1543
Airport West,23 Hart St,2,House,603000,S,Nelson,4/03/2017,13.5,3042,2,1,1,272,84,0.308823529,1950,City of ,Moonee Valley,City of Moonee Valley,-37.7294,144.888,Western Metropolitan,3464
Airport West,1/80 Hawker St,3,Townhouse,700000,S,Brad,4/03/2017,13.5,3042,3,2,2,239,134,0.560669456,2009,City of ,Moonee Valley,City of Moonee Valley,-37.7218,144.8837,Western Metropolitan,3464
Airport West,1/37 Hillside Gr,3,House,600000,S,Maddison,4/03/2017,13.5,3042,2,1,1,290,116,0.4,1980,City of ,Moonee Valley,City of Moonee Valley,-37.7273,144.8744,Western Metropolitan,3464
Airport West,2/49 McIntosh St,2,Unit,500000,VB,Barry,4/03/2017,13.5,3042,2,1,1,168,86,0.511904762,2011,City of ,Moonee Valley,City of Moonee Valley,-37.7215,144.8864,Western Metropolitan,3464
Airport West,1/43 Cameron St,3,Unit,752000,S,Nelson,11/02/2017,13.5,3042,3,1,1,265,130,0.490566038,1993,City of ,Moonee Valley,City of Moonee Valley,-37.7302,144.8855,Western Metropolitan,3464
Airport West,478 Fullarton Rd,3,House,810000,PI,Barry,18/03/2017,13.5,3042,3,3,2,555,192,0.345945946,1980,City of ,Moonee Valley,City of Moonee Valley,-37.7285,144.8694,Western Metropolitan,3464
Airport West,144 Marshall Rd,3,House,715000,S,Rendina,18/03/2017,13.5,3042,3,2,2,422,126,0.298578199,1995,City of ,Moonee Valley,City of Moonee Valley,-37.7164,144.8792,Western Metropolitan,3464
Airport West,85 Roberts Rd,4,House,900000,S,Harcourts,27/11/2016,13.5,3042,4,2,3,628,146,0.232484076,1975,City of ,Moonee Valley,City of Moonee Valley,-37.7256,144.8739,Western Metropolitan,3464
Airport West,37 North St,3,Townhouse,825000,SP,Barry,19/11/2016,13.5,3042,3,2,1,293,102,0.348122867,1960,City of ,Moonee Valley,City of Moonee Valley,-37.72,144.8776,Western Metropolitan,3464
Airport West,3/19 Hart St,2,Unit,515000,S,Barry,7/11/2016,13.5,3042,2,1,1,141,73,0.517730496,2013,City of ,Moonee Valley,City of Moonee Valley,-37.7298,144.8883,Western Metropolitan,3464
Airport West,2/40 Earl St,3,Townhouse,700000,PI,Brad,15/10/2016,13.5,3042,3,2,2,165,133,0.806060606,2009,City of ,Moonee Valley,City of Moonee Valley,-37.727,144.887,Western Metropolitan,3464
Airport West,6 Kittyhawk St,4,House,773000,S,Brad,17/09/2016,13.5,3042,5,3,4,531,309,0.581920904,1980,City of ,Moonee Valley,City of Moonee Valley,-37.7263,144.8679,Western Metropolitan,3464
Airport West,2/62 Clydesdale Rd,2,Unit,530000,S,Nelson,10/09/2016,13.5,3042,2,1,1,120,94,0.783333333,2012,City of ,Moonee Valley,City of Moonee Valley,-37.7234,144.8792,Western Metropolitan,3464
Airport West,3 Deidre Ct,3,House,895000,PI,Rendina,10/09/2016,13.5,3042,3,1,6,1063,133,0.125117592,1975,City of ,Moonee Valley,City of Moonee Valley,-37.7249,144.8728,Western Metropolitan,3464
Airport West,154 Halsey Rd,3,Townhouse,840000,PI,Nelson,3/09/2016,13.5,3042,3,2,1,303,225,0.742574257,2016,City of ,Moonee Valley,City of Moonee Valley,-37.718,144.878,Western Metropolitan,3464
Airport West,2/13 North St,2,Unit,510000,S,Nelson,22/08/2016,13.5,3042,2,1,1,141,76,0.539007092,,City of ,Moonee Valley,City of Moonee Valley,-37.7202,144.8797,Western Metropolitan,3464
Airport West,36 Roberts Rd,4,House,785000,S,Considine,6/08/2016,13.5,3042,3,1,2,597,127,0.212730318,,City of ,Moonee Valley,City of Moonee Valley,-37.7259,144.8792,Western Metropolitan,3464
Airport West,174 Parer Rd,2,House,675000,S,Barry,16/07/2016,13.5,3042,2,1,1,612,100,0.163398693,1975,City of ,Moonee Valley,City of Moonee Valley,-37.7187,144.8765,Western Metropolitan,3464
Airport West,138 Victory Rd,3,House,1042000,S,Nelson,16/07/2016,13.5,3042,3,2,5,612,174,0.284313725,1950,City of ,Moonee Valley,City of Moonee Valley,-37.7173,144.8796,Western Metropolitan,3464
Airport West,3/7 South Rd,3,Townhouse,540000,SP,Nelson,18/06/2016,13.5,3042,2,2,1,161,101,0.627329193,2010,City of ,Moonee Valley,City of Moonee Valley,-37.7231,144.8802,Western Metropolitan,3464
Airport West,10 Hilbert Rd,3,House,685000,S,Barry,22/05/2016,13.5,3042,3,1,1,579,113,0.195164076,1975,City of ,Moonee Valley,City of Moonee Valley,-37.7226,144.8733,Western Metropolitan,3464
Airport West,11 Harrington Rd,6,House,725000,SP,Barry,7/05/2016,13.5,3042,6,3,2,976,186,0.19057377,1980,City of ,Moonee Valley,City of Moonee Valley,-37.7239,144.8735,Western Metropolitan,3464
Airport West,2/252 Parer Rd,2,Townhouse,450000,S,Barry,7/05/2016,13.5,3042,2,1,1,110,90,0.818181818,2015,City of ,Moonee Valley,City of Moonee Valley,-37.7216,144.871,Western Metropolitan,3464
Airport West,180 Parer Rd,3,House,830000,S,Barry,16/04/2016,13.5,3042,3,1,2,971,113,0.116374871,1960,City of ,Moonee Valley,City of Moonee Valley,-37.7186,144.876,Western Metropolitan,3464
Airport West,33 Green St,3,House,720000,S,Brad,8/04/2017,13.5,3042,3,2,2,305,136,0.445901639,2008,City of ,Moonee Valley,City of Moonee Valley,-37.7284,144.8874,Western Metropolitan,3464
Airport West,67 Halsey Rd,3,House,510000,VB,Nelson,29/04/2017,13.5,3042,3,1,1,488,217,0.444672131,1960,City of ,Moonee Valley,City of Moonee Valley,-37.7191,144.8857,Western Metropolitan,3464
Airport West,2/80 Hawker St,2,Unit,480000,VB,Barry,29/04/2017,13.5,3042,2,1,1,128,92,0.71875,2009,City of ,Moonee Valley,City of Moonee Valley,-37.7216,144.8837,Western Metropolitan,3464
Airport West,118 Marshall Rd,3,House,640000,S,Nelson,1/07/2017,10.4,3042,3,1,2,219,101.37,0.462876712,1960,City of ,Moonee Valley,City of Moonee Valley,-37.71655,144.88155,Western Metropolitan,3464
Airport West,18A Hart St,3,Townhouse,730000,S,Brad,17/06/2017,10.4,3042,3,1,2,242,124,0.512396694,2010,City of ,Moonee Valley,City of Moonee Valley,-37.72893,144.88859,Western Metropolitan,3464
Airport West,163 Halsey Rd,2,House,650000,S,Prime,27/05/2017,10.4,3042,2,1,3,374,96,0.256684492,1950,City of ,Moonee Valley,City of Moonee Valley,-37.71811,144.87693,Western Metropolitan,3464
Airport West,127A Parer Rd,3,Townhouse,856000,S,Barry,27/05/2017,10.4,3042,3,2,1,300,212,0.706666667,2011,City of ,Moonee Valley,City of Moonee Valley,-37.71917,144.87819,Western Metropolitan,3464
Airport West,3/26 Highridge Cr,3,Unit,670000,S,Nelson,8/07/2017,10.4,3042,3,1,2,169,153,0.905325444,2000,City of ,Moonee Valley,City of Moonee Valley,-37.72752,144.88358,Western Metropolitan,3464
Airport West,10A Coniston Av,3,Townhouse,780000,S,RE,29/07/2017,10.4,3042,3,2,1,195,192,0.984615385,2005,City of ,Moonee Valley,City of Moonee Valley,-37.7325,144.88272,Western Metropolitan,3464
Airport West,34 Green St,3,House,1000001,S,Nelson,9/09/2017,10.4,3042,3,2,1,697,163,0.233859397,2017,City of ,Moonee Valley,City of Moonee Valley,-37.72812,144.88735,Western Metropolitan,3464
Airport West,16 Highridge Cr,3,House,850000,S,Brad,23/09/2017,10.4,3042,3,1,2,551,96,0.174228675,1950,City of ,Moonee Valley,City of Moonee Valley,-37.72739,144.88235,Western Metropolitan,3464
Airport West,18 Glenys Av,3,House,790000,S,Raine,7/10/2017,10.4,3042,3,1,5,536,108,0.201492537,1980,City of ,Moonee Valley,City of Moonee Valley,-37.72285,144.87539,Western Metropolitan,3464
Airport West,3 Chancellor Rd,3,House,730000,VB,Nelson,14/10/2017,10.4,3042,3,2,1,548,130,0.237226277,2017,City of ,Moonee Valley,City of Moonee Valley,-37.72741,144.87919,Western Metropolitan,3464
Airport West,29 Hilbert Rd,3,House,770000,PI,Barry,14/10/2017,10.4,3042,3,2,2,616,160,0.25974026,1960,City of ,Moonee Valley,City of Moonee Valley,-37.72367,144.87059,Western Metropolitan,3464
Airport West,31 Kingsley Rd,3,House,805000,S,Nelson,14/10/2017,10.4,3042,3,1,2,540,100,0.185185185,1960,City of ,Moonee Valley,City of Moonee Valley,-37.72459,144.87406,Western Metropolitan,3464
Airport West,25 Glenys Av,3,House,730000,S,Barry,21/10/2017,10.4,3042,3,1,1,377,111,0.294429708,1970,City of ,Moonee Valley,City of Moonee Valley,-37.72313,144.87527,Western Metropolitan,3464
Airport West,108 Victory Rd,3,House,926000,S,Nelson,21/10/2017,10.4,3042,3,1,2,614,129,0.21009772,1960,City of ,Moonee Valley,City of Moonee Valley,-37.71757,144.88228,Western Metropolitan,3464
Airport West,49 Bedford St,4,House,965000,PI,Nelson,28/10/2017,10.4,3042,4,2,1,730,125,0.171232877,1950,City of ,Moonee Valley,City of Moonee Valley,-37.7204,144.87419,Western Metropolitan,3464
Airport West,11 Harrington Rd,6,House,870000,VB,Barry,28/10/2017,10.4,3042,6,3,2,976,186,0.19057377,1980,City of ,Moonee Valley,City of Moonee Valley,-37.72394,144.87348,Western Metropolitan,3464
Airport West,60 Hilbert Rd,3,House,845000,S,Barry,28/10/2017,10.4,3042,3,3,3,612,30,0.049019608,1970,City of ,Moonee Valley,City of Moonee Valley,-37.72483,144.87087,Western Metropolitan,3464
Airport West,32 Coniston Av,3,House,970000,S,Barry,6/01/2018,10.4,3042,3,1,2,634,140,0.220820189,1960,City of ,Moonee Valley,City of Moonee Valley,-37.72904,144.88259,Western Metropolitan,3464
Airport West,23 Matthews Av,4,House,790000,VB,Barry,6/01/2018,10.4,3042,4,2,1,585,178,0.304273504,2015,City of ,Moonee Valley,City of Moonee Valley,-37.73344,144.88925,Western Metropolitan,3464
Airport West,35 Cameron St,3,House,776000,S,Nelson,9/12/2017,10.4,3042,3,2,2,190,134,0.705263158,2012,City of ,Moonee Valley,City of Moonee Valley,-37.73026,144.88652,Western Metropolitan,3464
Airport West,58 Fraser St,4,House,1220000,S,Barry,9/12/2017,10.4,3042,4,2,5,585,214,0.365811966,1960,City of ,Moonee Valley,City of Moonee Valley,-37.72379,144.88391,Western Metropolitan,3464
Airport West,78 King St,5,House,1025000,VB,Jellis,20/01/2018,10.4,3042,5,2,3,764,251,0.328534031,1980,City of ,Moonee Valley,City of Moonee Valley,-37.72282,144.88373,Western Metropolitan,3464
Airport West,8 McNamara Av,3,House,975000,S,Nelson,3/03/2018,10.4,3042,3,2,1,303,248,0.818481848,2017,City of ,Moonee Valley,City of Moonee Valley,-37.73174,144.88086,Western Metropolitan,3464
Airport West,38a North St,3,Townhouse,891000,S,Nelson,3/03/2018,10.4,3042,3,2,2,314,160,0.50955414,2017,City of ,Moonee Valley,City of Moonee Valley,-37.71968,144.87756,Western Metropolitan,3464
Airport West,155a Parer Rd,2,Unit,530000,S,Barry,17/03/2018,10.4,3042,2,1,1,273,80,0.293040293,,City of ,Moonee Valley,City of Moonee Valley,-37.71903,144.87558,Western Metropolitan,3464
Albanvale,10 Elinga Ct,3,House,555000,SP,Sweeney,29/07/2017,14,3021,3,1,3,566,126,0.222614841,1980,City of ,Brimbank,City of Brimbank,-37.74306,144.76679,Western Metropolitan,1899
Albanvale,35 Angelique Gr,3,House,506000,S,hockingstuart,19/08/2017,14,3021,3,1,2,544,120,0.220588235,1980,City of ,Brimbank,City of Brimbank,-37.74965,144.77009,Western Metropolitan,1899
Albanvale,1 Fernhill Ct,4,House,560000,S,Barry,11/11/2017,14,3021,4,1,2,546,149,0.272893773,1978,City of ,Brimbank,City of Brimbank,-37.744,144.7672,Western Metropolitan,1899
Albert Park,112 Beaconsfield Pde,3,House,2850000,PI,Buxton,4/03/2017,3.3,3206,3,2,0,211,198,0.938388626,1890,City of ,Port Phillip,City of Port Phillip,-37.8481,144.9499,Southern Metropolitan,3280
Albert Park,396 Montague St,2,House,1436000,S,RT,4/03/2017,3.3,3206,2,1,0,130,81,0.623076923,1900,City of ,Port Phillip,City of Port Phillip,-37.8431,144.9565,Southern Metropolitan,3280
Albert Park,97 Page St,3,House,3010000,S,Greg,18/03/2017,3.3,3206,3,2,0,147,146,0.993197279,1890,City of ,Port Phillip,City of Port Phillip,-37.8473,144.9551,Southern Metropolitan,3280
Albert Park,115 Page St,4,House,4735000,S,Marshall,25/02/2017,3.3,3206,4,2,1,330,207,0.627272727,1910,City of ,Port Phillip,City of Port Phillip,-37.8477,144.9558,Southern Metropolitan,3280
Albert Park,65 Graham St,2,House,1322500,S,Greg,15/10/2016,3.3,3206,2,1,0,149,98,0.657718121,1890,City of ,Port Phillip,City of Port Phillip,-37.8443,144.9481,Southern Metropolitan,3280
Albert Park,364 Montague St,2,House,1562500,S,Greg,15/10/2016,3.3,3206,2,1,0,141,83,0.588652482,1890,City of ,Port Phillip,City of Port Phillip,-37.8424,144.9562,Southern Metropolitan,3280
Albert Park,49 Page St,3,House,2000000,PI,Marshall,24/09/2016,3.3,3206,3,1,1,238,131,0.550420168,1890,City of ,Port Phillip,City of Port Phillip,-37.8461,144.9528,Southern Metropolitan,3280
Albert Park,29 Faussett St,2,House,2120000,S,Greg,10/09/2016,3.3,3206,2,1,1,199,107,0.537688442,1900,City of ,Port Phillip,City of Port Phillip,-37.8422,144.9554,Southern Metropolitan,3280
Albert Park,105 Kerferd Rd,2,House,1275000,S,hockingstuart,3/09/2016,3.3,3206,2,1,0,120,82,0.683333333,1900,City of ,Port Phillip,City of Port Phillip,-37.8459,144.9555,Southern Metropolitan,3280
Albert Park,17 Reed St,3,House,1740000,PI,Marshall,28/08/2016,3.3,3206,3,2,2,147,134,0.911564626,1890,City of ,Port Phillip,City of Port Phillip,-37.8448,144.9453,Southern Metropolitan,3280
Albert Park,9 Durham St,1,House,985000,S,Marshall,30/07/2016,3.3,3206,1,1,0,81,54,0.666666667,1900,City of ,Port Phillip,City of Port Phillip,-37.8411,144.9497,Southern Metropolitan,3280
Albert Park,27 Barrett St,4,House,2140000,S,Greg,27/06/2016,3.3,3206,3,2,1,183,145,0.792349727,1880,City of ,Port Phillip,City of Port Phillip,-37.8434,144.9495,Southern Metropolitan,3280
Albert Park,55 Withers St,4,House,2800000,VB,Cayzer,18/06/2016,3.3,3206,4,3,1,327,254,0.77675841,1910,City of ,Port Phillip,City of Port Phillip,-37.8467,144.9475,Southern Metropolitan,3280
Albert Park,6 Brooke St,2,House,980000,S,Greg,28/05/2016,3.3,3206,2,1,0,79,68,0.860759494,1890,City of ,Port Phillip,City of Port Phillip,-37.8387,144.9519,Southern Metropolitan,3280
Albert Park,86 Mills St,3,House,2000000,VB,RT,16/04/2016,3.3,3206,3,2,1,211,147,0.696682464,1900,City of ,Port Phillip,City of Port Phillip,-37.847,144.9575,Southern Metropolitan,3280
Albert Park,4 Ashworth St,3,House,1700000,VB,Greg,6/05/2017,3.3,3206,3,1,1,178,116,0.651685393,1910,City of ,Port Phillip,City of Port Phillip,-37.8473,144.9495,Southern Metropolitan,3280
Albert Park,91 Page St,3,House,2150000,S,Marshall,20/05/2017,3.3,3206,3,1,1,163,85,0.521472393,1890,City of ,Port Phillip,City of Port Phillip,-37.8473,144.955,Southern Metropolitan,3280
Albert Park,46 Withers St,2,House,1190000,S,RT,29/04/2017,3.3,3206,2,1,0,111,70,0.630630631,1915,City of ,Port Phillip,City of Port Phillip,-37.8445,144.9489,Southern Metropolitan,3280
Albert Park,21 Greig St,3,House,2500000,VB,Greg,3/06/2017,3,3206,3,2,1,165,148.5,0.9,1890,City of ,Port Phillip,City of Port Phillip,-37.84152,144.95027,Southern Metropolitan,3280
Albert Park,3/78 Kerferd Rd,2,Unit,685000,PI,Greg,24/06/2017,3,3206,2,1,0,324,58,0.179012346,1930,City of ,Port Phillip,City of Port Phillip,-37.84469,144.95578,Southern Metropolitan,3280
Albert Park,96 Danks St,3,House,1505000,S,Cayzer,27/05/2017,3,3206,3,1,1,149,109,0.731543624,1890,City of ,Port Phillip,City of Port Phillip,-37.84587,144.94828,Southern Metropolitan,3280
Albert Park,59 Moubray St,3,House,2100000,VB,Cayzer,23/09/2017,3,3206,3,2,,137,125,0.912408759,1890,City of ,Port Phillip,City of Port Phillip,-37.84388,144.95303,Southern Metropolitan,3280
Albert Park,59 Barrett St,3,House,2340000,S,Greg,26/08/2017,3,3206,3,2,1,162,135,0.833333333,1880,City of ,Port Phillip,City of Port Phillip,-37.84398,144.95044,Southern Metropolitan,3280
Albert Park,103 Kerferd Rd,2,House,1330000,S,Marshall,14/10/2017,3,3206,2,1,0,122,77,0.631147541,1890,City of ,Port Phillip,City of Port Phillip,-37.84588,144.95559,Southern Metropolitan,3280
Albion,48 Sydney St,3,House,840000,S,Barry,27/11/2016,13.9,3020,3,1,0,697,153,0.219512195,1920,City of ,Brimbank,City of Brimbank,-37.7809,144.8228,Western Metropolitan,2185
Albion,25 Sydney St,4,House,816000,S,Bells,10/09/2016,13.9,3020,4,1,2,837,156,0.186379928,1930,City of ,Brimbank,City of Brimbank,-37.7825,144.8221,Western Metropolitan,2185
Albion,10/117 Anderson Rd,1,Unit,185000,S,hockingstuart,22/08/2016,13.9,3020,1,1,1,2347,43,0.018321261,1975,City of ,Brimbank,City of Brimbank,-37.7852,144.8272,Western Metropolitan,2185
Albion,3 Barclay St,2,House,460000,S,Barry,30/07/2016,13.9,3020,2,1,2,463,85,0.183585313,,City of ,Brimbank,City of Brimbank,-37.7813,144.8234,Western Metropolitan,2185
Albion,29 Norwood St,3,House,593000,SP,Sweeney,4/06/2016,13.9,3020,3,2,2,605,102,0.168595041,1965,City of ,Brimbank,City of Brimbank,-37.7792,144.8117,Western Metropolitan,2185
Albion,12 Coolamon St,2,House,600000,SP,Barry,22/05/2016,13.9,3020,2,1,1,534,90,0.168539326,1950,City of ,Brimbank,City of Brimbank,-37.7795,144.8204,Western Metropolitan,2185
Albion,70 Forrest St,3,House,600000,VB,Sweeney,22/05/2016,13.9,3020,3,1,1,697,110,0.157819225,1928,City of ,Brimbank,City of Brimbank,-37.7842,144.8175,Western Metropolitan,2185
Albion,14 Delmont St,3,House,730000,S,hockingstuart,4/03/2017,13.9,3020,3,2,3,628,140,0.222929936,1960,City of ,Brimbank,City of Brimbank,-37.7801,144.8121,Western Metropolitan,2185
Albion,12 Wyalong St,2,House,730000,S,Bells,4/03/2017,13.9,3020,2,1,0,697,94,0.134863702,1970,City of ,Brimbank,City of Brimbank,-37.7778,144.818,Western Metropolitan,2185
Albion,2/32 Forrest St,3,Unit,560000,S,Douglas,25/02/2017,13.9,3020,3,2,7,420,150,0.357142857,1970,City of ,Brimbank,City of Brimbank,-37.7848,144.8231,Western Metropolitan,2185
Albion,7 Dalworth St,2,House,765000,SA,Barry,4/02/2016,13.9,3020,2,1,2,672,111,0.165178571,1958,City of ,Brimbank,City of Brimbank,-37.7812,144.8121,Western Metropolitan,2185
Albion,26 Wyalong St,3,House,800000,S,Bells,8/04/2017,13.9,3020,4,2,5,689,128,0.185776488,1951,City of ,Brimbank,City of Brimbank,-37.7776,144.8167,Western Metropolitan,2185
Albion,1/141 Anderson Rd,2,Unit,420000,S,Bells,13/05/2017,13.9,3020,2,1,1,192,88,0.458333333,1970,City of ,Brimbank,City of Brimbank,-37.7832,144.8275,Western Metropolitan,2185
Albion,2/36 Selwyn St,3,Unit,580000,PI,Douglas,13/05/2017,13.9,3020,3,2,2,250,129,0.516,2013,City of ,Brimbank,City of Brimbank,-37.7798,144.8156,Western Metropolitan,2185
Albion,1/121 Anderson Rd,1,Unit,200000,VB,FN,20/05/2017,13.9,3020,1,1,1,1175,35,0.029787234,1970,City of ,Brimbank,City of Brimbank,-37.7849,144.8272,Western Metropolitan,2185
Albion,67 Norwood St,3,House,621000,S,hockingstuart,20/05/2017,13.9,3020,3,1,3,547,140,0.255941499,,City of ,Brimbank,City of Brimbank,-37.7765,144.8123,Western Metropolitan,2185
Albion,2/62 Selwyn St,3,Unit,600000,SA,Douglas,20/05/2017,13.9,3020,3,1,1,181,129,0.712707182,2000,City of ,Brimbank,City of Brimbank,-37.7815,144.8128,Western Metropolitan,2185
Albion,2 Bazentin St,3,House,570000,S,Barry,1/07/2017,10.5,3020,3,1,0,423,142,0.3356974,1920,City of ,Brimbank,City of Brimbank,-37.77917,144.82223,Western Metropolitan,2185
Albion,3 Clairmont St,3,House,787000,S,hockingstuart,3/06/2017,10.5,3020,3,1,3,716,111,0.155027933,1955,City of ,Brimbank,City of Brimbank,-37.77917,144.81407,Western Metropolitan,2185
Albion,3 Merlow St,4,House,820000,S,Bells,17/06/2017,10.5,3020,4,2,1,604,127,0.210264901,1950,City of ,Brimbank,City of Brimbank,-37.77967,144.81275,Western Metropolitan,2185
Albion,2/36 Selwyn St,3,Unit,600000,SA,Douglas,27/05/2017,10.5,3020,3,2,2,247,127,0.51417004,2013,City of ,Brimbank,City of Brimbank,-37.77976,144.81559,Western Metropolitan,2185
Albion,1/26 Talmage St,3,Townhouse,580000,PI,Douglas,29/07/2017,10.5,3020,3,2,2,175,110,0.628571429,2014,City of ,Brimbank,City of Brimbank,-37.77856,144.82443,Western Metropolitan,2185
Albion,41 Adelaide St,3,House,760000,S,Bells,23/09/2017,10.5,3020,3,1,1,697,121,0.173601148,1950,City of ,Brimbank,City of Brimbank,-37.78036,144.8195,Western Metropolitan,2185
Albion,5 Norwood St,3,House,715000,S,Sweeney,21/10/2017,10.5,3020,3,1,2,638,97,0.152037618,1960,City of ,Brimbank,City of Brimbank,-37.78089,144.81141,Western Metropolitan,2185
Albion,7 Brisbane St,3,House,750000,SP,Ray,17/03/2018,10.5,3020,3,1,2,697,146,0.209469154,1950,City of ,Brimbank,City of Brimbank,-37.77824,144.81604,Western Metropolitan,2185
Albion,13 Wyalong St,3,House,781000,S,Barry,17/03/2018,10.5,3020,3,2,2,292,164,0.561643836,2015,City of ,Brimbank,City of Brimbank,-37.77792,144.81678,Western Metropolitan,2185
Albion,2 Barclay St,2,House,655000,S,Douglas,24/02/2018,10.5,3020,2,1,2,463,97,0.20950324,1950,City of ,Brimbank,City of Brimbank,-37.78159,144.82373,Western Metropolitan,2185
Albion,8B Brisbane St,3,Townhouse,600000,S,Bells,24/02/2018,10.5,3020,3,2,2,187,120,0.64171123,2010,City of ,Brimbank,City of Brimbank,-37.77804,144.81643,Western Metropolitan,2185
Alphington,11 Margaret Gr,4,House,1900000,SP,McGrath,27/11/2016,6.4,3078,4,2,2,556,272,0.489208633,1930,City of ,Darebin,City of Darebin,-37.7844,145.0225,Northern Metropolitan,2211
Alphington,10 Bennett St,4,House,1830000,S,Nelson,19/11/2016,6.4,3078,4,2,2,606,112,0.184818482,1970,City of ,Darebin,City of Darebin,-37.7743,145.0316,Northern Metropolitan,2211
Alphington,38 Bennett St,4,House,2100000,S,Nelson,19/11/2016,6.4,3078,4,2,2,575,271,0.471304348,2008,City of ,Darebin,City of Darebin,-37.7723,145.0319,Northern Metropolitan,2211
Alphington,3/19 Harker St,2,Unit,525500,S,Miles,12/11/2016,6.4,3078,2,1,1,88,60,0.681818182,1960,City of ,Darebin,City of Darebin,-37.7791,145.0306,Northern Metropolitan,2211
Alphington,4/2 Miller St,2,Townhouse,805000,S,Miles,12/11/2016,6.4,3078,2,2,3,155,140,0.903225806,2004,City of ,Darebin,City of Darebin,-37.7804,145.0308,Northern Metropolitan,2211
Alphington,44 Shiers St,4,House,1717500,S,Collins,8/10/2016,6.4,3078,4,2,1,599,203,0.338898164,1925,City of ,Darebin,City of Darebin,-37.7717,145.031,Northern Metropolitan,2211
Alphington,6 Smith St,4,House,2000000,S,Brace,3/09/2016,6.4,3078,3,2,4,853,263,0.308323564,1930,City of ,Darebin,City of Darebin,-37.7707,145.0318,Northern Metropolitan,2211
Alphington,42 Shiers St,4,House,1950000,S,Jellis,30/07/2016,6.4,3078,4,2,3,589,210,0.356536503,1920,City of ,Darebin,City of Darebin,-37.7719,145.0309,Northern Metropolitan,2211
Alphington,83 Fulham Rd,5,House,2840000,S,Nelson,12/06/2016,6.4,3078,5,4,4,809,165,0.203955501,1910,City of ,Darebin,City of Darebin,-37.775,145.0268,Northern Metropolitan,2211
Alphington,2c Hamilton St,3,House,865000,SP,hockingstuart,22/05/2016,6.4,3078,3,1,1,180,131,0.727777778,2010,City of ,Darebin,City of Darebin,-37.7802,145.0243,Northern Metropolitan,2211
Alphington,5 Ross St,4,House,2220000,S,Kay,3/06/2017,5.7,3078,4,2,3,580,184,0.317241379,1930,City of ,Darebin,City of Darebin,-37.77227,145.0284,Northern Metropolitan,2211
Alphington,10/14 Yarralea St,1,House,330000,VB,Nelson,24/06/2017,5.7,3078,1,1,1,60,40,0.666666667,1970,City of ,Darebin,City of Darebin,-37.78469,145.03239,Northern Metropolitan,2211
Alphington,77A Fulham Rd,3,House,1170000,S,Jellis,9/09/2017,5.7,3078,3,1,1,268,126,0.470149254,1994,City of ,Darebin,City of Darebin,-37.7753,145.0267,Northern Metropolitan,2211
Alphington,24 Ross St,3,House,1550000,VB,Miles,14/10/2017,5.7,3078,3,1,2,595,132,0.221848739,1940,City of ,Darebin,City of Darebin,-37.77112,145.02893,Northern Metropolitan,2211
Alphington,44 Yarralea St,4,House,1757000,S,Jellis,21/10/2017,5.7,3078,4,1,2,519,139,0.267822736,1920,City of ,Darebin,City of Darebin,-37.78236,145.03205,Northern Metropolitan,2211
Alphington,41 Broomfield Av,4,House,1575000,PI,Jellis,10/03/2018,5.7,3078,4,2,1,471,187,0.397027601,1925,City of ,Darebin,City of Darebin,-37.77984,145.02149,Northern Metropolitan,2211
Altona,4 Blyth St,3,House,1120000,S,Barlow,4/03/2017,13.8,3018,3,1,2,506,120,0.23715415,1930,City of ,Hobsons Bay,City of Hobsons Bay,-37.8693,144.8375,Western Metropolitan,5301
Altona,1A Merritt Ct,3,Townhouse,705000,S,hockingstuart,11/02/2017,13.8,3018,3,2,2,197,152,0.771573604,,City of ,Hobsons Bay,City of Hobsons Bay,-37.8579,144.8181,Western Metropolitan,5301
Altona,24 Wren St,4,House,845000,S,hockingstuart,11/02/2017,13.8,3018,4,1,2,745,130,0.174496644,1950,City of ,Hobsons Bay,City of Hobsons Bay,-37.8658,144.8155,Western Metropolitan,5301
Altona,27 McIntyre Dr,3,House,840000,SP,Greg,18/03/2017,13.8,3018,3,2,2,534,136,0.254681648,1965,City of ,Hobsons Bay,City of Hobsons Bay,-37.86,144.8245,Western Metropolitan,5301
Altona,59 Bracken Gr,5,House,1525000,S,Greg,3/12/2016,13.8,3018,5,3,3,729,268,0.367626886,2005,City of ,Hobsons Bay,City of Hobsons Bay,-37.8721,144.8105,Western Metropolitan,5301
Altona,104 Maidstone St,2,House,857000,SP,hockingstuart,27/11/2016,13.8,3018,2,2,1,675,100,0.148148148,1950,City of ,Hobsons Bay,City of Hobsons Bay,-37.8653,144.8129,Western Metropolitan,5301
Altona,1/152 Blyth St,3,Townhouse,743000,SP,Gunn&Co,12/11/2016,13.8,3018,3,2,2,211,176,0.834123223,,City of ,Hobsons Bay,City of Hobsons Bay,-37.8698,144.816,Western Metropolitan,5301
Altona,3/46 Sargood St,2,Unit,447000,S,Burnham,15/10/2016,13.8,3018,2,1,1,137,77,0.562043796,1990,City of ,Hobsons Bay,City of Hobsons Bay,-37.8655,144.8299,Western Metropolitan,5301
Altona,1/136 Queen St,2,Unit,580000,S,Barlow,8/10/2016,13.8,3018,2,1,1,225,93,0.413333333,1988,City of ,Hobsons Bay,City of Hobsons Bay,-37.8696,144.827,Western Metropolitan,5301
Altona,173 Queen St,3,House,1335000,S,hockingstuart,8/10/2016,13.8,3018,3,1,4,777,22,0.028314028,1953,City of ,Hobsons Bay,City of Hobsons Bay,-37.8697,144.8249,Western Metropolitan,5301
Altona,3/26 Grieve Pde,2,Unit,510000,S,Village,10/09/2016,13.8,3018,2,1,1,127,76,0.598425197,1990,City of ,Hobsons Bay,City of Hobsons Bay,-37.8686,144.8182,Western Metropolitan,5301
Altona,4/5 Rose St,2,Unit,425000,S,hockingstuart,10/09/2016,13.8,3018,2,1,2,115,57,0.495652174,1980,City of ,Hobsons Bay,City of Hobsons Bay,-37.871,144.8185,Western Metropolitan,5301
Altona,158 Queen St,3,House,520000,VB,Greg,3/09/2016,13.8,3018,3,2,1,352,242,0.6875,2015,City of ,Hobsons Bay,City of Hobsons Bay,-37.87,144.825,Western Metropolitan,5301
Altona,1/170 Blyth St,3,Unit,630000,S,Barlow,6/08/2016,13.8,3018,2,1,2,311,94,0.302250804,1955,City of ,Hobsons Bay,City of Hobsons Bay,-37.8702,144.8143,Western Metropolitan,5301
Altona,2/60 David St,2,House,535600,SP,Compton,30/07/2016,13.8,3018,2,1,1,154,91,0.590909091,1996,City of ,Hobsons Bay,City of Hobsons Bay,-37.8646,144.8272,Western Metropolitan,5301
Altona,5/8 David St,2,Unit,580000,PI,Biggin,16/07/2016,13.8,3018,2,2,1,175,76,0.434285714,2013,City of ,Hobsons Bay,City of Hobsons Bay,-37.8687,144.8268,Western Metropolitan,5301
Altona,29 Rose St,4,House,1780000,SP,Greg,4/06/2016,13.8,3018,4,3,6,1057,220,0.208136235,1962,City of ,Hobsons Bay,City of Hobsons Bay,-37.8681,144.819,Western Metropolitan,5301
Altona,5/57 Blyth St,3,Unit,730000,SP,Barlow,28/05/2016,13.8,3018,3,2,1,70,3,0.042857143,2014,City of ,Hobsons Bay,City of Hobsons Bay,-37.868,144.8285,Western Metropolitan,5301
Altona,156 Maidstone St,3,House,660000,VB,Greg,7/05/2016,13.8,3018,3,1,1,602,123,0.204318937,1955,City of ,Hobsons Bay,City of Hobsons Bay,-37.8616,144.8116,Western Metropolitan,5301
Altona,3/20 Mulga St,3,Unit,577000,S,Williams,23/04/2016,13.8,3018,3,2,1,205,113,0.551219512,2007,City of ,Hobsons Bay,City of Hobsons Bay,-37.8684,144.815,Western Metropolitan,5301
Altona,22 Fenfield St,3,House,678000,S,hockingstuart,16/04/2016,13.8,3018,3,1,2,606,87,0.143564356,1950,City of ,Hobsons Bay,City of Hobsons Bay,-37.8608,144.8124,Western Metropolitan,5301
Altona,1/123 Blyth St,2,Townhouse,720000,S,hockingstuart,4/02/2016,13.8,3018,2,1,2,292,125,0.428082192,2013,City of ,Hobsons Bay,City of Hobsons Bay,-37.8687,144.8197,Western Metropolitan,5301
Altona,196 Blyth St,5,House,1480000,SP,Greg,13/05/2017,13.8,3018,5,3,4,725,201,0.277241379,1980,City of ,Hobsons Bay,City of Hobsons Bay,-37.8712,144.8107,Western Metropolitan,5301
Altona,2/10 McAlpine Ct,3,Unit,670000,S,Sweeney,17/06/2017,11,3018,3,2,1,284,88,0.309859155,1988,City of ,Hobsons Bay,City of Hobsons Bay,-37.86066,144.82013,Western Metropolitan,5301
Altona,1/20 Mulga St,3,Townhouse,765000,S,Williams,17/06/2017,11,3018,3,2,2,200,139,0.695,2007,City of ,Hobsons Bay,City of Hobsons Bay,-37.86837,144.81502,Western Metropolitan,5301
Altona,70 Purnell St,3,House,1005000,S,Barlow,27/05/2017,11,3018,3,1,4,575,112,0.194782609,1960,City of ,Hobsons Bay,City of Hobsons Bay,-37.86715,144.80612,Western Metropolitan,5301
Altona,232 Blyth St,3,House,1225000,S,Barlow,12/08/2017,11,3018,3,1,1,697,132,0.18938307,1970,City of ,Hobsons Bay,City of Hobsons Bay,-37.87256,144.8078,Western Metropolitan,5301
Altona,41 Maidstone St,3,Unit,767000,SP,Barlow,12/08/2017,11,3018,3,2,1,305,132,0.432786885,2005,City of ,Hobsons Bay,City of Hobsons Bay,-37.871,144.81153,Western Metropolitan,5301
Altona,35 Lowe Av,4,House,935000,SP,Barlow,15/07/2017,11,3018,4,2,2,629,180,0.286168521,1985,City of ,Hobsons Bay,City of Hobsons Bay,-37.86027,144.82073,Western Metropolitan,5301
Altona,65 Sargood St,3,Townhouse,815000,S,hockingstuart,15/07/2017,11,3018,3,2,2,159,130,0.817610063,2014,City of ,Hobsons Bay,City of Hobsons Bay,-37.86472,144.82929,Western Metropolitan,5301
Altona,86 Grieve Pde,3,House,913000,S,Greg,3/09/2017,11,3018,3,2,3,530,148,0.279245283,1985,City of ,Hobsons Bay,City of Hobsons Bay,-37.8614,144.81931,Western Metropolitan,5301
Altona,12 Belmar Av,3,House,940000,S,Greg,7/10/2017,11,3018,3,1,2,534,106,0.198501873,1940,City of ,Hobsons Bay,City of Hobsons Bay,-37.85993,144.8176,Western Metropolitan,5301
Altona,17 Bell Av,3,House,970000,S,Williams,10/02/2018,11,3018,3,2,2,534,145,0.271535581,1988,City of ,Hobsons Bay,City of Hobsons Bay,-37.87106,144.80523,Western Metropolitan,5301
Altona Meadows,1 Sheppard Ct,4,House,810000,SP,Purplebricks,12/08/2017,15.5,3028,4,2,2,749,180.9,0.241522029,1989,City of ,Hobsons Bay,City of Hobsons Bay,-37.88413,144.79033,Western Metropolitan,7630
Altona Meadows,52 Shirley St,3,House,620000,S,hockingstuart,22/07/2017,15.5,3028,3,1,2,466,107,0.229613734,1975,City of ,Hobsons Bay,City of Hobsons Bay,-37.87019,144.7843,Western Metropolitan,7630
Altona Meadows,52 Spicer Bvd,4,House,750000,S,YPA,23/09/2017,15.5,3028,4,2,2,636,232,0.364779874,1996,City of ,Hobsons Bay,City of Hobsons Bay,-37.87941,144.76935,Western Metropolitan,7630
Altona Meadows,24 Elystan Rd,4,House,417000,S,Barry,21/10/2017,15.5,3028,4,2,2,591,141,0.23857868,1988,City of ,Hobsons Bay,City of Hobsons Bay,-37.88306,144.77419,Western Metropolitan,7630
Altona Meadows,29 Fell Ct,4,House,600000,S,MICM,21/10/2017,15.5,3028,4,1,1,484,100,0.20661157,1995,City of ,Hobsons Bay,City of Hobsons Bay,-37.87373,144.77972,Western Metropolitan,7630
Altona Meadows,3 Hopkins Ct,4,House,800000,S,Barlow,21/10/2017,15.5,3028,4,2,4,531,190,0.357815443,1980,City of ,Hobsons Bay,City of Hobsons Bay,-37.89218,144.78582,Western Metropolitan,7630
Altona Meadows,28 Roser Dr,3,House,600000,SP,Ace,28/10/2017,15.5,3028,3,1,2,482,131,0.271784232,1992,City of ,Hobsons Bay,City of Hobsons Bay,-37.87631,144.7709,Western Metropolitan,7630
Altona Meadows,11/11 Harrison Ct,3,Townhouse,541500,SP,Ray,18/11/2017,15.5,3028,3,2,1,194,128,0.659793814,2002,City of ,Hobsons Bay,City of Hobsons Bay,-37.8726,144.7814,Western Metropolitan,7630
Altona Meadows,14 Taegtow Wy,3,House,718000,S,Barry,6/01/2018,15.5,3028,3,2,4,560,154,0.275,1990,City of ,Hobsons Bay,City of Hobsons Bay,-37.8879,144.77873,Western Metropolitan,7630
Altona Meadows,84 Myers Pde,4,House,761000,S,Reliance,10/03/2018,15.5,3028,4,2,2,503,190,0.377733598,1990,City of ,Hobsons Bay,City of Hobsons Bay,-37.87774,144.77313,Western Metropolitan,7630
Altona Meadows,13 Dillon Ct,4,House,783000,S,Barry,17/02/2018,15.5,3028,4,2,2,489,166,0.339468303,2000,City of ,Hobsons Bay,City of Hobsons Bay,-37.87536,144.77117,Western Metropolitan,7630
Altona Meadows,4 Hoddle Wy,3,House,632500,S,Barry,24/02/2018,15.5,3028,3,1,4,530,113,0.213207547,1980,City of ,Hobsons Bay,City of Hobsons Bay,-37.88698,144.78551,Western Metropolitan,7630
Altona North,3/66 Marion St,2,Townhouse,421000,S,hockingstuart,4/03/2017,11.1,3025,2,1,1,77,77,1,2009,City of ,Hobsons Bay,City of Hobsons Bay,-37.8351,144.8529,Western Metropolitan,5132
Altona North,6 Hill St,3,House,815000,S,hockingstuart,25/02/2017,11.1,3025,3,2,3,555,130,0.234234234,1960,City of ,Hobsons Bay,City of Hobsons Bay,-37.8318,144.8388,Western Metropolitan,5132
Altona North,5 Cresser St,4,House,1200000,SP,RT,27/11/2016,11.1,3025,4,1,4,633,158,0.249605055,1960,City of ,Hobsons Bay,City of Hobsons Bay,-37.8375,144.8541,Western Metropolitan,5132
Altona North,5 Binns St,3,House,710000,PI,Village,7/11/2016,11.1,3025,3,1,3,540,116,0.214814815,1960,City of ,Hobsons Bay,City of Hobsons Bay,-37.8294,144.8378,Western Metropolitan,5132
Altona North,11 Beevers St,3,House,708000,S,Greg,15/10/2016,11.1,3025,3,1,2,585,97,0.165811966,1960,City of ,Hobsons Bay,City of Hobsons Bay,-37.8258,144.8523,Western Metropolitan,5132
Altona North,25 Allan St,4,House,875000,SP,Jas,8/10/2016,11.1,3025,3,1,4,559,169,0.302325581,1965,City of ,Hobsons Bay,City of Hobsons Bay,-37.8448,144.8529,Western Metropolitan,5132
Altona North,45 Hearn St,5,House,1085000,S,FN,3/09/2016,11.1,3025,5,3,6,592,251,0.423986486,1965,City of ,Hobsons Bay,City of Hobsons Bay,-37.8388,144.8567,Western Metropolitan,5132
Altona North,4 Knapp St,3,House,781000,S,Jas,3/09/2016,11.1,3025,3,1,2,533,117,0.219512195,1970,City of ,Hobsons Bay,City of Hobsons Bay,-37.8291,144.835,Western Metropolitan,5132
Altona North,4/221 Blackshaws Rd,2,Unit,292000,S,Jas,28/08/2016,11.1,3025,2,1,1,153,70,0.45751634,1970,City of ,Hobsons Bay,City of Hobsons Bay,-37.8332,144.8649,Western Metropolitan,5132
Altona North,1/156 Chambers Rd,3,House,620000,SP,Hunter,22/08/2016,11.1,3025,5,2,2,276,100,0.362318841,2010,City of ,Hobsons Bay,City of Hobsons Bay,-37.8262,144.8443,Western Metropolitan,5132
Altona North,2 Gadsden St,3,House,728500,S,Jas,22/08/2016,11.1,3025,3,1,1,531,157,0.29566855,1960,City of ,Hobsons Bay,City of Hobsons Bay,-37.8277,144.8385,Western Metropolitan,5132
Altona North,24 Hansen St,3,House,931000,S,hockingstuart,22/08/2016,11.1,3025,3,2,1,590,160,0.271186441,1950,City of ,Hobsons Bay,City of Hobsons Bay,-37.8382,144.8649,Western Metropolitan,5132
Altona North,33 Carthy St,3,House,683000,S,FN,4/06/2016,11.1,3025,3,1,2,534,167,0.312734082,1967,City of ,Hobsons Bay,City of Hobsons Bay,-37.8284,144.8355,Western Metropolitan,5132
Altona North,252 Millers Rd,4,House,693000,SP,Raine&Horne,22/05/2016,11.1,3025,4,2,4,315,170,0.53968254,2008,City of ,Hobsons Bay,City of Hobsons Bay,-37.8391,144.8467,Western Metropolitan,5132
Altona North,2/36 May St,3,House,675000,S,hockingstuart,14/05/2016,11.1,3025,3,2,2,171,109,0.637426901,2012,City of ,Hobsons Bay,City of Hobsons Bay,-37.8337,144.8554,Western Metropolitan,5132
Altona North,1/95 Mills St,3,House,588000,S,Williams,7/05/2016,11.1,3025,3,1,1,328,118,0.359756098,1970,City of ,Hobsons Bay,City of Hobsons Bay,-37.838,144.8555,Western Metropolitan,5132
Altona North,269 Blackshaws Rd,3,House,916000,SP,Hunter,20/05/2017,11.1,3025,3,1,2,606,109,0.179867987,1970,City of ,Hobsons Bay,City of Hobsons Bay,-37.8326,144.8594,Western Metropolitan,5132
Altona North,23 Rymill Ct,3,House,910000,S,hockingstuart,29/04/2017,11.1,3025,3,1,3,535,132,0.246728972,1970,City of ,Hobsons Bay,City of Hobsons Bay,-37.8322,144.8399,Western Metropolitan,5132
Altona North,151 Chambers Rd,3,House,900000,S,Greg,1/07/2017,9.4,3025,3,1,2,672,110,0.163690476,1960,City of ,Hobsons Bay,City of Hobsons Bay,-37.8265,144.84386,Western Metropolitan,5132
Altona North,4/15 Stapley Cr,3,Unit,451500,SP,Barlow,15/07/2017,9.4,3025,3,1,1,180,88,0.488888889,1965,City of ,Hobsons Bay,City of Hobsons Bay,-37.83648,144.86296,Western Metropolitan,5132
Altona North,12 Chambers Rd,3,House,830000,SP,RT,22/07/2017,9.4,3025,3,2,2,529,130,0.245746692,1965,City of ,Hobsons Bay,City of Hobsons Bay,-37.84107,144.84179,Western Metropolitan,5132
Altona North,313 Millers Rd,4,House,805000,S,Sweeney,22/07/2017,9.4,3025,4,2,5,562,146,0.259786477,1950,City of ,Hobsons Bay,City of Hobsons Bay,-37.84384,144.84637,Western Metropolitan,5132
Altona North,2/16 Stapley Cr,2,House,510000,S,Sweeney,22/07/2017,9.4,3025,2,1,1,170,100,0.588235294,2001,City of ,Hobsons Bay,City of Hobsons Bay,-37.83658,144.86199,Western Metropolitan,5132
Altona North,95 Marion St,3,House,1070000,PI,RT,3/09/2017,9.4,3025,3,1,3,693,134,0.193362193,1950,City of ,Hobsons Bay,City of Hobsons Bay,-37.83511,144.84905,Western Metropolitan,5132
Altona North,23 Hatherley Gr,3,House,791000,S,Jas,26/08/2017,9.4,3025,3,1,4,553,131,0.236889693,1960,City of ,Hobsons Bay,City of Hobsons Bay,-37.84484,144.85017,Western Metropolitan,5132
Altona North,7 Gadsden St,3,House,840000,SP,FN,11/11/2017,9.4,3025,3,1,3,535,534,0.998130841,1970,City of ,Hobsons Bay,City of Hobsons Bay,-37.8279,144.8379,Western Metropolitan,5132
Altona North,54 Cooper Av,3,House,835000,S,RT,9/12/2017,9.4,3025,3,2,3,534,115,0.215355805,1970,City of ,Hobsons Bay,City of Hobsons Bay,-37.83748,144.84446,Western Metropolitan,5132
Altona North,5 Dean Ct,3,House,860000,S,Sweeney,9/12/2017,9.4,3025,3,1,5,537,123,0.229050279,1960,City of ,Hobsons Bay,City of Hobsons Bay,-37.8308,144.83765,Western Metropolitan,5132
Altona North,146 McIntosh Rd,3,House,700000,SP,hockingstuart,3/03/2018,9.4,3025,3,1,2,441,107,0.242630385,1975,City of ,Hobsons Bay,City of Hobsons Bay,-37.8454,144.84711,Western Metropolitan,5132
Altona North,271 Millers Rd,3,House,750000,S,Greg,17/03/2018,9.4,3025,3,1,3,557,111,0.199281867,1970,City of ,Hobsons Bay,City of Hobsons Bay,-37.84061,144.84692,Western Metropolitan,5132
Altona North,11a Mahon Av,3,House,860000,S,Greg,24/02/2018,9.4,3025,3,2,2,323,161,0.498452012,2016,City of ,Hobsons Bay,City of Hobsons Bay,-37.83015,144.85064,Western Metropolitan,5132
Ardeer,1 Chelsey St,3,House,627000,S,Barry,29/07/2017,12.8,3022,3,1,2,697,102,0.146341463,1960,City of ,Brimbank,City of Brimbank,-37.77713,144.79746,Western Metropolitan,1281
Ardeer,721 Ballarat Rd,3,House,730000,SP,HAR,19/08/2017,12.8,3022,3,2,2,739,112,0.151556157,1970,City of ,Brimbank,City of Brimbank,-37.77245,144.8001,Western Metropolitan,1281
Ardeer,22 Holt St,3,House,615000,S,Barry,14/10/2017,12.8,3022,3,1,3,642,197,0.306853583,1970,City of ,Brimbank,City of Brimbank,-37.7753,144.7994,Western Metropolitan,1281
Ardeer,174 Forrest St,3,House,480000,VB,Douglas,28/10/2017,12.8,3022,3,1,2,400,100,0.25,,City of ,Brimbank,City of Brimbank,-37.78281,144.80403,Western Metropolitan,1281
Ardeer,130 Suspension St,3,House,650000,PI,hockingstuart,28/10/2017,12.8,3022,3,1,3,604,108,0.178807947,1946,City of ,Brimbank,City of Brimbank,-37.78127,144.79761,Western Metropolitan,1281
Ardeer,17 Helene St,4,House,740000,S,Barry,9/12/2017,12.8,3022,4,2,2,602,185,0.30730897,1970,City of ,Brimbank,City of Brimbank,-37.7789,144.80517,Western Metropolitan,1281
Ardeer,27 Helene St,4,House,624000,S,Barry,3/03/2018,12.8,3022,4,1,4,601,153,0.254575707,1970,City of ,Brimbank,City of Brimbank,-37.77881,144.80431,Western Metropolitan,1281
Armadale,28 Cambridge St,3,House,1870000,S,Hodges,4/03/2017,6.3,3143,3,1,1,217,116,0.534562212,1888,City of ,Stonnington,City of Stonnington,-37.8592,145.0182,Southern Metropolitan,4836
Armadale,12 Willis St,3,House,2050000,S,Marshall,4/03/2017,6.3,3143,3,2,1,205,116,0.565853659,1910,City of ,Stonnington,City of Stonnington,-37.8574,145.0281,Southern Metropolitan,4836
Armadale,10/51 Armadale St,2,Unit,710000,S,Jellis,25/02/2017,6.3,3143,2,1,1,2471,80,0.032375556,1970,City of ,Stonnington,City of Stonnington,-37.8573,145.0186,Southern Metropolitan,4836
Armadale,75 Sutherland Rd,3,House,1285000,S,Marshall,25/02/2017,6.3,3143,3,1,2,186,80,0.430107527,1920,City of ,Stonnington,City of Stonnington,-37.8554,145.0173,Southern Metropolitan,4836
Armadale,7 Llaneast St,3,House,1939000,S,Jellis,3/12/2016,6.3,3143,3,2,2,296,150,0.506756757,1889,City of ,Stonnington,City of Stonnington,-37.8614,145.0274,Southern Metropolitan,4836
Armadale,44 Denbigh Rd,4,House,3625000,S,Jellis,27/11/2016,6.3,3143,4,1,2,709,251,0.354019746,1900,City of ,Stonnington,City of Stonnington,-37.8574,145.016,Southern Metropolitan,4836
Armadale,44 Hampden Rd,4,House,4200000,VB,Kay,27/11/2016,6.3,3143,4,3,3,563,333,0.591474245,2000,City of ,Stonnington,City of Stonnington,-37.8582,145.0138,Southern Metropolitan,4836
Armadale,3/769 High St,3,Townhouse,1101000,S,Jellis,27/11/2016,6.3,3143,3,1,2,103,3,0.029126214,2000,City of ,Stonnington,City of Stonnington,-37.8542,145.0135,Southern Metropolitan,4836
Armadale,4 Mercer Rd,3,House,3512500,S,Marshall,27/11/2016,6.3,3143,3,2,2,617,285,0.46191248,1998,City of ,Stonnington,City of Stonnington,-37.8557,145.0264,Southern Metropolitan,4836
Armadale,40 New St,2,House,1210000,S,Marshall,12/11/2016,6.3,3143,2,1,0,249,96,0.385542169,1910,City of ,Stonnington,City of Stonnington,-37.8543,145.016,Southern Metropolitan,4836
Armadale,35 Northcote Rd,4,House,2801000,S,Marshall,12/11/2016,6.3,3143,4,2,2,624,222,0.355769231,1900,City of ,Stonnington,City of Stonnington,-37.8536,145.0173,Southern Metropolitan,4836
Armadale,791 High St,3,House,1800000,PI,RT,15/10/2016,6.3,3143,3,2,2,405,121,0.298765432,1910,City of ,Stonnington,City of Stonnington,-37.8545,145.0145,Southern Metropolitan,4836
Armadale,25 Llaneast St,4,House,2200000,PI,Jellis,15/10/2016,6.3,3143,4,1,2,495,163,0.329292929,1900,City of ,Stonnington,City of Stonnington,-37.8613,145.0264,Southern Metropolitan,4836
Armadale,10 William St,1,House,1435000,SP,Jellis,8/10/2016,6.3,3143,2,2,1,144,107,0.743055556,1900,City of ,Stonnington,City of Stonnington,-37.8564,145.0228,Southern Metropolitan,4836
Armadale,367 Dandenong Rd,6,House,5525000,S,Marshall,17/09/2016,6.3,3143,5,3,4,1491,516,0.346076459,1935,City of ,Stonnington,City of Stonnington,-37.8602,145.013,Southern Metropolitan,4836
Armadale,14 New St,3,House,1300000,VB,Jellis,18/06/2016,6.3,3143,2,1,2,212,106,0.5,1900,City of ,Stonnington,City of Stonnington,-37.8542,145.0149,Southern Metropolitan,4836
Armadale,63 Denbigh Rd,3,House,1900000,S,Marshall,22/05/2016,6.3,3143,3,1,2,328,108,0.329268293,1900,City of ,Stonnington,City of Stonnington,-37.8559,145.0158,Southern Metropolitan,4836
Armadale,9/19 Mercer Rd,3,Unit,735000,PI,Marshall,7/05/2016,6.3,3143,3,2,1,2113,14,0.006625651,1970,City of ,Stonnington,City of Stonnington,-37.8543,145.0262,Southern Metropolitan,4836
Armadale,1/5 The Terrace,2,Unit,852000,S,Woodards,22/04/2017,6.3,3143,2,1,1,869,74,0.085155351,1980,City of ,Stonnington,City of Stonnington,-37.8603,145.0224,Southern Metropolitan,4836
Armadale,20 Cambridge St,3,House,2385000,S,Marshall,3/06/2017,6.3,3143,3,1,0,256,130,0.5078125,1910,City of ,Stonnington,City of Stonnington,-37.85911,145.01783,Southern Metropolitan,4836
Armadale,504 Orrong Rd,4,House,3200000,VB,Kay,17/06/2017,6.3,3143,4,4,2,847,285,0.3364817,1935,City of ,Stonnington,City of Stonnington,-37.85938,145.01087,Southern Metropolitan,4836
Armadale,8/74 Denbigh Rd,2,Unit,410000,VB,hockingstuart,27/05/2017,6.3,3143,2,1,0,1097,63,0.057429353,1967,City of ,Stonnington,City of Stonnington,-37.85549,145.0163,Southern Metropolitan,4836
Armadale,21/62 Wattletree Rd,2,Unit,821000,S,hockingstuart,12/08/2017,6.3,3143,2,2,1,3093,75,0.024248303,2006,City of ,Stonnington,City of Stonnington,-37.86165,145.02148,Southern Metropolitan,4836
Armadale,121 Kooyong Rd,4,House,5100000,S,Marshall,3/09/2017,6.3,3143,4,2,2,761,255,0.335085414,1900,City of ,Stonnington,City of Stonnington,-37.85249,145.02091,Southern Metropolitan,4836
Armadale,20 Kooyong Rd,3,Townhouse,1715000,SP,Marshall,16/09/2017,6.3,3143,3,3,1,1889,141,0.074642668,1920,City of ,Stonnington,City of Stonnington,-37.86109,145.01994,Southern Metropolitan,4836
Armadale,18A New St,2,House,1460000,S,Jellis,19/08/2017,6.3,3143,2,1,1,181,80,0.44198895,1930,City of ,Stonnington,City of Stonnington,-37.8542,145.01506,Southern Metropolitan,4836
Armadale,28 New St,2,House,1726000,S,Marshall,19/08/2017,6.3,3143,2,2,2,269,128,0.475836431,1910,City of ,Stonnington,City of Stonnington,-37.85425,145.01545,Southern Metropolitan,4836
Armadale,9 Bailey Av,4,House,3000000,VB,Kay,23/09/2017,6.3,3143,4,3,2,474,180,0.379746835,1915,City of ,Stonnington,City of Stonnington,-37.86345,145.02454,Southern Metropolitan,4836
Armadale,22 Gladstone Av,3,House,1500000,VB,hockingstuart,23/09/2017,6.3,3143,3,1,,230,115,0.5,1900,City of ,Stonnington,City of Stonnington,-37.86275,145.02364,Southern Metropolitan,4836
Armadale,16 Bailey Av,4,House,4060000,S,Marshall,26/08/2017,6.3,3143,4,2,1,574,191,0.332752613,1910,City of ,Stonnington,City of Stonnington,-37.86325,145.02422,Southern Metropolitan,4836
Armadale,39 Llaneast St,3,House,1895000,S,Marshall,14/10/2017,6.3,3143,3,1,2,387,136,0.351421189,1915,City of ,Stonnington,City of Stonnington,-37.86106,145.02513,Southern Metropolitan,4836
Armadale,3 Northcote Rd,3,House,1800000,VB,Jellis,28/10/2017,6.3,3143,3,2,1,167,117,0.700598802,1910,City of ,Stonnington,City of Stonnington,-37.85469,145.01826,Southern Metropolitan,4836
Armadale,5 Eileen St,3,House,1899000,S,RT,17/03/2018,6.3,3143,3,2,2,263,93,0.353612167,1930,City of ,Stonnington,City of Stonnington,-37.85137,145.0158,Southern Metropolitan,4836
Armadale,4 Armadale St,4,House,4250000,PI,Marshall,24/02/2018,6.3,3143,4,3,2,550,283,0.514545455,1890,City of ,Stonnington,City of Stonnington,-37.8604,145.01852,Southern Metropolitan,4836
Ascot Vale,12 Mirams St,4,House,890000,SP,Raine,10/12/2016,5.9,3032,4,1,1,300,185,0.616666667,1890,City of ,Moonee Valley,City of Moonee Valley,-37.7766,144.9143,Western Metropolitan,6567
Ascot Vale,7 Francis St,3,House,1380000,SP,Nelson,4/03/2017,5.9,3032,3,2,2,277,174,0.628158845,1910,City of ,Moonee Valley,City of Moonee Valley,-37.7777,144.9221,Western Metropolitan,6567
Ascot Vale,2/21 Harold St,2,Unit,490000,VB,Jellis,4/03/2017,5.9,3032,2,1,1,423,62,0.146572104,1970,City of ,Moonee Valley,City of Moonee Valley,-37.7736,144.9015,Western Metropolitan,6567
Ascot Vale,44 The Parade,4,House,1850000,S,Brad,4/03/2017,5.9,3032,4,3,1,478,270,0.564853556,1900,City of ,Moonee Valley,City of Moonee Valley,-37.7729,144.9179,Western Metropolitan,6567
Ascot Vale,78 The Parade,3,House,1440000,S,Nelson,11/02/2017,5.9,3032,3,1,1,487,131,0.26899384,1900,City of ,Moonee Valley,City of Moonee Valley,-37.7725,144.9146,Western Metropolitan,6567
Ascot Vale,3/8 Walter St,2,Townhouse,865000,SP,Nelson,18/03/2017,5.9,3032,2,2,1,146,132,0.904109589,2015,City of ,Moonee Valley,City of Moonee Valley,-37.7713,144.9038,Western Metropolitan,6567
Ascot Vale,18/54 Epsom Rd,2,Unit,390000,PI,Jellis,25/02/2017,5.9,3032,2,1,1,1957,69,0.035258048,2012,City of ,Moonee Valley,City of Moonee Valley,-37.7731,144.9074,Western Metropolitan,6567
Ascot Vale,15 Mirams St,4,House,1345000,S,Jellis,25/02/2017,5.9,3032,4,1,1,552,155,0.280797101,1920,City of ,Moonee Valley,City of Moonee Valley,-37.7769,144.9138,Western Metropolitan,6567
Ascot Vale,44 Walter St,3,House,1381500,S,Barry,25/02/2017,5.9,3032,3,2,2,416,168,0.403846154,1900,City of ,Moonee Valley,City of Moonee Valley,-37.7727,144.9055,Western Metropolitan,6567
Ascot Vale,30 Rothwell St,3,House,940000,S,Nelson,3/12/2016,5.9,3032,3,1,2,298,108,0.362416107,1920,City of ,Moonee Valley,City of Moonee Valley,-37.7777,144.9195,Western Metropolitan,6567
Ascot Vale,1 East St,3,Townhouse,1000000,S,Nelson,27/11/2016,5.9,3032,3,2,2,200,144,0.72,2003,City of ,Moonee Valley,City of Moonee Valley,-37.7766,144.9277,Western Metropolitan,6567
Ascot Vale,21A Geddes St,3,House,1037500,S,Alexkarbon,19/11/2016,5.9,3032,3,1,2,506,110,0.217391304,1920,City of ,Moonee Valley,City of Moonee Valley,-37.7779,144.9133,Western Metropolitan,6567
Ascot Vale,1/20 Newsom St,3,Townhouse,1050000,S,Jellis,19/11/2016,5.9,3032,3,2,2,318,160,0.503144654,2013,City of ,Moonee Valley,City of Moonee Valley,-37.7744,144.9035,Western Metropolitan,6567
Ascot Vale,26 Newsom St,3,House,1000000,PI,Brad,12/11/2016,5.9,3032,3,2,2,440,120,0.272727273,1955,City of ,Moonee Valley,City of Moonee Valley,-37.7746,144.9031,Western Metropolitan,6567
Ascot Vale,8 Pentland St,3,House,1435000,S,Nelson,12/11/2016,5.9,3032,3,2,2,532,147,0.276315789,1950,City of ,Moonee Valley,City of Moonee Valley,-37.7737,144.904,Western Metropolitan,6567
Ascot Vale,1/17 Epsom Rd,2,Unit,685000,S,Brad,7/11/2016,5.9,3032,2,1,2,228,90,0.394736842,1995,City of ,Moonee Valley,City of Moonee Valley,-37.7718,144.9066,Western Metropolitan,6567
Ascot Vale,125 Epsom Rd,4,House,1100000,VB,Nelson,15/10/2016,5.9,3032,4,2,5,559,195,0.348837209,1920,City of ,Moonee Valley,City of Moonee Valley,-37.7791,144.9136,Western Metropolitan,6567
Ascot Vale,41 Monash St,3,House,1230000,S,Nelson,8/10/2016,5.9,3032,4,1,2,594,148,0.249158249,1960,City of ,Moonee Valley,City of Moonee Valley,-37.7819,144.9064,Western Metropolitan,6567
Ascot Vale,78 Francis St,3,House,1135000,S,Brad,24/09/2016,5.9,3032,3,1,1,296,104,0.351351351,1910,City of ,Moonee Valley,City of Moonee Valley,-37.777,144.9176,Western Metropolitan,6567
Ascot Vale,25 Geddes St,4,House,950000,PI,Nelson,24/09/2016,5.9,3032,4,2,1,298,147,0.493288591,1920,City of ,Moonee Valley,City of Moonee Valley,-37.7778,144.9131,Western Metropolitan,6567
Ascot Vale,67 Hurtle St,3,House,1180000,SP,Brad,17/09/2016,5.9,3032,3,2,2,617,149,0.241491086,1930,City of ,Moonee Valley,City of Moonee Valley,-37.7742,144.906,Western Metropolitan,6567
Ascot Vale,95 Walter St,4,House,1480000,S,Raine,17/09/2016,5.9,3032,4,2,2,597,180,0.301507538,1939,City of ,Moonee Valley,City of Moonee Valley,-37.7757,144.9088,Western Metropolitan,6567
Ascot Vale,51 Francis St,2,House,770000,PI,Nelson,10/09/2016,5.9,3032,2,1,1,226,87,0.384955752,1900,City of ,Moonee Valley,City of Moonee Valley,-37.7774,144.9186,Western Metropolitan,6567
Ascot Vale,58 Bloomfield Rd,3,House,1215000,S,Stockdale,28/08/2016,5.9,3032,3,1,1,452,175,0.387168142,1960,City of ,Moonee Valley,City of Moonee Valley,-37.7762,144.9174,Western Metropolitan,6567
Ascot Vale,1/91 Epsom Rd,2,Unit,545000,S,Nelson,28/08/2016,5.9,3032,2,1,2,194,71,0.365979381,1900,City of ,Moonee Valley,City of Moonee Valley,-37.7772,144.9118,Western Metropolitan,6567
Ascot Vale,52 Monash St,3,House,1425000,PI,Jellis,13/08/2016,5.9,3032,3,2,2,495,139,0.280808081,1920,City of ,Moonee Valley,City of Moonee Valley,-37.7821,144.9055,Western Metropolitan,6567
Ascot Vale,10 Fenton St,2,House,1053000,S,Nelson,6/08/2016,5.9,3032,2,1,1,269,109,0.405204461,1900,City of ,Moonee Valley,City of Moonee Valley,-37.7748,144.929,Western Metropolitan,6567
Ascot Vale,10 McCully St,3,House,1377000,S,Nelson,6/08/2016,5.9,3032,3,1,1,417,168,0.402877698,1900,City of ,Moonee Valley,City of Moonee Valley,-37.7756,144.9208,Western Metropolitan,6567
Ascot Vale,5 Doncaster St,4,House,1705000,S,Jellis,30/07/2016,5.9,3032,4,2,4,598,273,0.456521739,2012,City of ,Moonee Valley,City of Moonee Valley,-37.7774,144.9104,Western Metropolitan,6567
Ascot Vale,25 Dalgety Dr,3,House,940000,S,Jellis,26/07/2016,5.9,3032,3,2,2,285,172,0.603508772,2011,City of ,Moonee Valley,City of Moonee Valley,-37.7778,144.9061,Western Metropolitan,6567
Ascot Vale,7 Dalgety Dr,3,House,995000,S,Nelson,26/07/2016,5.9,3032,3,2,1,314,177,0.563694268,2010,City of ,Moonee Valley,City of Moonee Valley,-37.7778,144.9042,Western Metropolitan,6567
Ascot Vale,6 Waller Ct,3,House,786000,S,Brad,26/07/2016,5.9,3032,3,2,1,576,120,0.208333333,1940,City of ,Moonee Valley,City of Moonee Valley,-37.7816,144.9217,Western Metropolitan,6567
Ascot Vale,62 Mirams St,3,House,890000,SP,Brad,16/07/2016,5.9,3032,3,1,1,242,110,0.454545455,1920,City of ,Moonee Valley,City of Moonee Valley,-37.7765,144.9114,Western Metropolitan,6567
Ascot Vale,17 Ascot St,2,House,705000,PI,Nelson,27/06/2016,5.9,3032,2,1,3,252,108,0.428571429,1910,City of ,Moonee Valley,City of Moonee Valley,-37.7825,144.9206,Western Metropolitan,6567
Ascot Vale,73 Kent St,2,House,760000,PI,Nelson,27/06/2016,5.9,3032,2,1,1,124,77,0.620967742,1900,City of ,Moonee Valley,City of Moonee Valley,-37.7807,144.9285,Western Metropolitan,6567
Ascot Vale,98 Epsom Rd,3,House,971000,SP,Nelson,4/06/2016,5.9,3032,3,2,2,285,128,0.449122807,1900,City of ,Moonee Valley,City of Moonee Valley,-37.775,144.9091,Western Metropolitan,6567
Ascot Vale,8 Geddes St,2,House,710000,PI,Nelson,4/06/2016,5.9,3032,2,1,1,214,77,0.359813084,1890,City of ,Moonee Valley,City of Moonee Valley,-37.7776,144.9142,Western Metropolitan,6567
Ascot Vale,75 Maribyrnong Rd,6,House,2425000,PI,Brad,4/06/2016,5.9,3032,6,3,2,1014,435,0.428994083,1887,City of ,Moonee Valley,City of Moonee Valley,-37.7721,144.9184,Western Metropolitan,6567
Ascot Vale,119 Roseberry St,2,House,750000,SP,Maddison,4/06/2016,5.9,3032,2,1,1,226,92,0.407079646,1920,City of ,Moonee Valley,City of Moonee Valley,-37.7745,144.9093,Western Metropolitan,6567
Ascot Vale,1 Bloomfield Rd,3,House,1305000,S,Barry,28/05/2016,5.9,3032,2,1,1,278,166,0.597122302,1900,City of ,Moonee Valley,City of Moonee Valley,-37.7768,144.9223,Western Metropolitan,6567
Ascot Vale,43 Bloomfield Rd,4,House,1430000,S,Nelson,22/05/2016,5.9,3032,4,2,0,418,158,0.377990431,1900,City of ,Moonee Valley,City of Moonee Valley,-37.7766,144.9187,Western Metropolitan,6567
Ascot Vale,58 Fenton St,4,House,1340000,S,Nelson,14/05/2016,5.9,3032,3,2,2,683,232,0.339677892,1978,City of ,Moonee Valley,City of Moonee Valley,-37.775,144.932,Western Metropolitan,6567
Ascot Vale,70 Munro St,3,House,955000,S,Brad,14/05/2016,5.9,3032,3,1,1,263,117,0.44486692,1910,City of ,Moonee Valley,City of Moonee Valley,-37.7753,144.9116,Western Metropolitan,6567
Ascot Vale,120 Epsom Rd,3,House,970000,S,Brad,7/05/2016,5.9,3032,3,1,2,350,125,0.357142857,1904,City of ,Moonee Valley,City of Moonee Valley,-37.7759,144.91,Western Metropolitan,6567
Ascot Vale,63 Kent St,2,House,751000,PI,Nelson,7/05/2016,5.9,3032,2,1,1,118,79,0.669491525,1890,City of ,Moonee Valley,City of Moonee Valley,-37.7807,144.9288,Western Metropolitan,6567
Ascot Vale,4 The Parade,2,House,950000,SP,Raine,7/05/2016,5.9,3032,2,1,1,173,102,0.589595376,1900,City of ,Moonee Valley,City of Moonee Valley,-37.7731,144.9206,Western Metropolitan,6567
Ascot Vale,21 Middle St,3,House,1130000,S,Nelson,23/04/2016,5.9,3032,3,2,1,272,157,0.577205882,1900,City of ,Moonee Valley,City of Moonee Valley,-37.7774,144.928,Western Metropolitan,6567
Ascot Vale,7 Angler Pde,4,House,1640000,S,Raine,16/04/2016,5.9,3032,4,3,2,562,204,0.362989324,1890,City of ,Moonee Valley,City of Moonee Valley,-37.782,144.903,Western Metropolitan,6567
Ascot Vale,26 Ayr St,6,House,1430000,S,Nelson,16/04/2016,5.9,3032,4,2,1,461,286,0.620390456,1900,City of ,Moonee Valley,City of Moonee Valley,-37.78,144.9295,Western Metropolitan,6567
Ascot Vale,2/127 Epsom Rd,2,Unit,610000,SP,Brad,16/04/2016,5.9,3032,2,1,1,301,104,0.34551495,1995,City of ,Moonee Valley,City of Moonee Valley,-37.7791,144.914,Western Metropolitan,6567
Ascot Vale,57 The Parade,3,House,940000,S,Nelson,16/04/2016,5.9,3032,3,3,1,491,127,0.258655804,1950,City of ,Moonee Valley,City of Moonee Valley,-37.7727,144.9136,Western Metropolitan,6567
Ascot Vale,8 Anderson St,5,House,2100000,S,Nelson,6/05/2017,5.9,3032,5,3,3,468,274,0.585470085,1925,City of ,Moonee Valley,City of Moonee Valley,-37.7822,144.9065,Western Metropolitan,6567
Ascot Vale,6 Munro St,3,House,1435000,S,Nelson,8/04/2017,5.9,3032,3,1,1,450,155,0.344444444,1920,City of ,Moonee Valley,City of Moonee Valley,-37.7756,144.9148,Western Metropolitan,6567
Ascot Vale,72 Bloomfield Rd,2,House,1020000,PI,Nelson,13/05/2017,5.9,3032,2,1,1,226,98,0.433628319,1920,City of ,Moonee Valley,City of Moonee Valley,-37.7761,144.9165,Western Metropolitan,6567
Ascot Vale,75 Maribyrnong Rd,6,House,2250000,PI,Jellis,13/05/2017,5.9,3032,6,3,2,1012,435,0.429841897,1887,City of ,Moonee Valley,City of Moonee Valley,-37.7721,144.9184,Western Metropolitan,6567
Ascot Vale,27 Hurtle St,3,House,1500000,PI,Biggin,3/06/2017,4.3,3032,3,3,1,382,218,0.570680628,2008,City of ,Moonee Valley,City of Moonee Valley,-37.77206,144.90397,Western Metropolitan,6567
Ascot Vale,33 Fenton St,4,House,1750000,SP,Rendina,17/06/2017,4.3,3032,4,2,1,360,249,0.691666667,1910,City of ,Moonee Valley,City of Moonee Valley,-37.77459,144.92993,Western Metropolitan,6567
Ascot Vale,75B Bloomfield Rd,3,House,1010000,S,Brad,24/06/2017,4.3,3032,3,2,1,150,125,0.833333333,1990,City of ,Moonee Valley,City of Moonee Valley,-37.77639,144.91666,Western Metropolitan,6567
Ascot Vale,18 McCully St,3,House,990000,S,Brad,24/06/2017,4.3,3032,3,1,0,196,102,0.520408163,1900,City of ,Moonee Valley,City of Moonee Valley,-37.77552,144.92022,Western Metropolitan,6567
Ascot Vale,39 Middle St,3,House,1530000,S,Nelson,27/05/2017,4.3,3032,3,2,1,257,162,0.630350195,1915,City of ,Moonee Valley,City of Moonee Valley,-37.77727,144.92655,Western Metropolitan,6567
Ascot Vale,91A Walter St,3,House,1082000,S,Nelson,27/05/2017,4.3,3032,3,2,2,254,120,0.472440945,2000,City of ,Moonee Valley,City of Moonee Valley,-37.77549,144.90865,Western Metropolitan,6567
Ascot Vale,24/157 Epsom Rd,3,Unit,825000,PI,McDonald,15/07/2017,4.3,3032,3,2,2,2905,164,0.056454389,2005,City of ,Moonee Valley,City of Moonee Valley,-37.78258,144.91694,Western Metropolitan,6567
Ascot Vale,2/25 Harold St,2,Unit,425500,S,Brad,15/07/2017,4.3,3032,2,1,1,1727,82,0.047481181,1960,City of ,Moonee Valley,City of Moonee Valley,-37.77341,144.9013,Western Metropolitan,6567
Ascot Vale,37 Roxburgh St,3,House,1306000,S,Jellis,15/07/2017,4.3,3032,3,1,0,199,126,0.633165829,1900,City of ,Moonee Valley,City of Moonee Valley,-37.77561,144.91695,Western Metropolitan,6567
Ascot Vale,2/41 Sandown Rd,3,Townhouse,855000,S,Alexkarbon,22/07/2017,4.3,3032,3,1,2,159,129,0.811320755,2011,City of ,Moonee Valley,City of Moonee Valley,-37.78329,144.91842,Western Metropolitan,6567
Ascot Vale,67 The Parade,2,House,1035000,S,Alexkarbon,22/07/2017,4.3,3032,2,1,1,319,117,0.36677116,1900,City of ,Moonee Valley,City of Moonee Valley,-37.77266,144.9131,Western Metropolitan,6567
Ascot Vale,132 The Parade,3,House,985000,S,Brad,3/09/2017,4.3,3032,3,1,,245,91,0.371428571,1945,City of ,Moonee Valley,City of Moonee Valley,-37.77215,144.91144,Western Metropolitan,6567
Ascot Vale,18 Ascot St,3,House,870000,PI,Nelson,9/09/2017,4.3,3032,3,2,3,388,92,0.237113402,1950,City of ,Moonee Valley,City of Moonee Valley,-37.7822,144.92042,Western Metropolitan,6567
Ascot Vale,1/37 Ascot Vale Rd,3,Unit,870000,SP,Jellis,9/09/2017,4.3,3032,3,2,1,3215,178,0.055365474,1900,City of ,Moonee Valley,City of Moonee Valley,-37.78344,144.92183,Western Metropolitan,6567
Ascot Vale,6 MacArthur Av,4,House,1151000,S,Bullen,26/08/2017,4.3,3032,4,2,2,290,178,0.613793103,2012,City of ,Moonee Valley,City of Moonee Valley,-37.77708,144.90914,Western Metropolitan,6567
Ascot Vale,11 Station Av,2,House,950000,SP,Nelson,7/10/2017,4.3,3032,2,1,0,138,97,0.702898551,1900,City of ,Moonee Valley,City of Moonee Valley,-37.77529,144.92255,Western Metropolitan,6567
Ascot Vale,5 Moonee St,3,House,1635000,S,Brad,14/10/2017,4.3,3032,3,1,2,619,170,0.274636511,1930,City of ,Moonee Valley,City of Moonee Valley,-37.7755,144.9275,Western Metropolitan,6567
Ascot Vale,29 Queens Av,4,House,1700000,S,Nelson,21/10/2017,4.3,3032,4,2,1,475,184,0.387368421,1900,City of ,Moonee Valley,City of Moonee Valley,-37.77872,144.9241,Western Metropolitan,6567
Ascot Vale,133 The Parade,2,House,1365000,S,Raine,11/11/2017,4.3,3032,2,2,2,320,117,0.365625,1950,City of ,Moonee Valley,City of Moonee Valley,-37.7722,144.909,Western Metropolitan,6567
Ascot Vale,93 Epsom Rd,5,House,1325000,S,Nelson,18/11/2017,4.3,3032,5,3,2,601,256,0.425956739,1920,City of ,Moonee Valley,City of Moonee Valley,-37.7773,144.9119,Western Metropolitan,6567
Ascot Vale,12 Mirams St,3,House,1750000,PI,Rendina,18/11/2017,4.3,3032,3,2,1,446,185,0.414798206,1890,City of ,Moonee Valley,City of Moonee Valley,-37.7766,144.9143,Western Metropolitan,6567
Ascot Vale,4 Hunt Cr,4,House,1800000,PI,Raine,9/12/2017,4.3,3032,4,3,2,561,241,0.429590018,1950,City of ,Moonee Valley,City of Moonee Valley,-37.77274,144.90328,Western Metropolitan,6567
Ascot Vale,143 Kent St,4,House,1400000,S,Nelson,9/12/2017,4.3,3032,4,1,2,520,162,0.311538462,1890,City of ,Moonee Valley,City of Moonee Valley,-37.78034,144.92494,Western Metropolitan,6567
Ascot Vale,163 The Parade,3,House,1050000,VB,Nelson,3/03/2018,4.3,3032,3,1,1,272,101,0.371323529,1910,City of ,Moonee Valley,City of Moonee Valley,-37.77202,144.90731,Western Metropolitan,6567
Ascot Vale,12 Mirams St,3,House,1550000,PI,Rendina,17/02/2018,4.3,3032,3,2,1,1350,185,0.137037037,1890,City of ,Moonee Valley,City of Moonee Valley,-37.77659,144.91428,Western Metropolitan,6567
Ascot Vale,10 Enclave Av,2,Townhouse,838000,S,Brad,17/03/2018,4.3,3032,2,2,2,131,110,0.839694656,2016,City of ,Moonee Valley,City of Moonee Valley,-37.77558,144.90397,Western Metropolitan,6567
Ascot Vale,5 McCully St,4,House,1610000,S,Jellis,17/03/2018,4.3,3032,4,2,1,466,194,0.416309013,1900,City of ,Moonee Valley,City of Moonee Valley,-37.77593,144.92156,Western Metropolitan,6567
Ascot Vale,37 Mirams St,3,House,1310000,PI,Nelson,17/03/2018,4.3,3032,3,2,2,351,126,0.358974359,1900,City of ,Moonee Valley,City of Moonee Valley,-37.77677,144.9128,Western Metropolitan,6567
Ascot Vale,28 Gillespie Av,3,House,1080000,S,Brad,24/02/2018,4.3,3032,3,2,2,223,137,0.614349776,2010,City of ,Moonee Valley,City of Moonee Valley,-37.77748,144.90652,Western Metropolitan,6567
Ashburton,9 Gona Ct,3,House,1710000,S,hockingstuart,10/12/2016,11,3147,3,1,2,806,101,0.125310174,1950,City of ,Boroondara,City of Boroondara,-37.8695,145.084,Southern Metropolitan,3052
Ashburton,45 Yuile St,3,House,1655000,S,Jellis,10/12/2016,11,3147,3,1,3,780,152,0.194871795,1940,City of ,Boroondara,City of Boroondara,-37.8599,145.0815,Southern Metropolitan,3052
Ashburton,29A Yuile St,5,House,3510000,S,Jellis,18/03/2017,11,3147,5,5,2,755,444,0.58807947,2015,City of ,Boroondara,City of Boroondara,-37.8598,145.0796,Southern Metropolitan,3052
Ashburton,69 Albion Rd,3,House,1670000,S,Jellis,3/12/2016,11,3147,3,2,2,599,220,0.367278798,1930,City of ,Boroondara,City of Boroondara,-37.8673,145.0688,Southern Metropolitan,3052
Ashburton,63 Dent St,4,House,1800000,S,Jellis,25/02/2017,11,3147,4,2,4,749,206,0.275033378,1950,City of ,Boroondara,City of Boroondara,-37.8669,145.077,Southern Metropolitan,3052
Ashburton,4 Vears Rd,3,House,1830000,S,Jellis,25/02/2017,11,3147,3,2,3,724,168,0.232044199,1940,City of ,Boroondara,City of Boroondara,-37.8619,145.0879,Southern Metropolitan,3052
Ashburton,1/65 Ashburn Gr,4,Townhouse,1250000,VB,Noel,27/11/2016,11,3147,4,2,2,321,199,0.619937695,2007,City of ,Boroondara,City of Boroondara,-37.8693,145.08,Southern Metropolitan,3052
Ashburton,48 Nicholas St,5,House,1600000,S,Marshall,27/11/2016,11,3147,5,3,4,700,266,0.38,1950,City of ,Boroondara,City of Boroondara,-37.8724,145.0758,Southern Metropolitan,3052
Ashburton,5 Taylor St,4,House,1860000,S,Jellis,27/11/2016,11,3147,4,2,3,696,274,0.393678161,2000,City of ,Boroondara,City of Boroondara,-37.8711,145.0746,Southern Metropolitan,3052
Ashburton,2/17 Ashburn Gr,3,Townhouse,900000,S,Jellis,19/11/2016,11,3147,3,2,2,153,110,0.718954248,1990,City of ,Boroondara,City of Boroondara,-37.8655,145.0808,Southern Metropolitan,3052
Ashburton,47 Yuile St,4,House,1550000,VB,Marshall,12/11/2016,11,3147,4,2,2,780,180,0.230769231,1938,City of ,Boroondara,City of Boroondara,-37.86,145.0817,Southern Metropolitan,3052
Ashburton,18 Glen Rd,3,House,1665000,S,Jellis,15/10/2016,11,3147,3,2,3,702,145,0.206552707,1945,City of ,Boroondara,City of Boroondara,-37.8737,145.0695,Southern Metropolitan,3052
Ashburton,16a Nicholas St,3,House,1100000,PI,Marshall,8/10/2016,11,3147,3,3,2,276,178,0.644927536,2004,City of ,Boroondara,City of Boroondara,-37.8699,145.0778,Southern Metropolitan,3052
Ashburton,5 Nicholas St,3,House,1337000,S,Buxton,8/10/2016,11,3147,3,1,2,583,112,0.192109777,1950,City of ,Boroondara,City of Boroondara,-37.8685,145.0786,Southern Metropolitan,3052
Ashburton,115 Ashburn Gr,8,House,2950000,S,hockingstuart,10/09/2016,11,3147,9,7,4,1472,618,0.419836957,2009,City of ,Boroondara,City of Boroondara,-37.8729,145.0788,Southern Metropolitan,3052
Ashburton,1/1 Nairn St,3,House,1518000,S,Jellis,10/09/2016,11,3147,3,2,2,516,145,0.281007752,1920,City of ,Boroondara,City of Boroondara,-37.8675,145.0668,Southern Metropolitan,3052
Ashburton,61 Dent St,4,House,2650000,S,Marshall,3/09/2016,11,3147,4,3,2,753,399,0.529880478,2015,City of ,Boroondara,City of Boroondara,-37.8669,145.0767,Southern Metropolitan,3052
Ashburton,19 Poulter St,3,House,1650000,S,Marshall,28/08/2016,11,3147,3,1,1,697,164,0.235294118,1947,City of ,Boroondara,City of Boroondara,-37.8636,145.0903,Southern Metropolitan,3052
Ashburton,15 Comas Gr,5,House,2752000,S,Jellis,22/08/2016,11,3147,6,4,2,1075,390,0.362790698,2010,City of ,Boroondara,City of Boroondara,-37.8714,145.073,Southern Metropolitan,3052
Ashburton,3 Mustang Ct,3,House,1500000,VB,Jellis,22/08/2016,11,3147,3,2,2,710,139,0.195774648,1945,City of ,Boroondara,City of Boroondara,-37.8653,145.0897,Southern Metropolitan,3052
Ashburton,14 Lucerne St,3,House,1415000,S,Buxton,27/06/2016,11,3147,3,1,1,605,111,0.183471074,1950,City of ,Boroondara,City of Boroondara,-37.8703,145.0774,Southern Metropolitan,3052
Ashburton,5 Pitt St,2,House,1440000,PI,Jellis,27/06/2016,11,3147,2,1,1,687,104,0.151382824,1940,City of ,Boroondara,City of Boroondara,-37.872,145.0692,Southern Metropolitan,3052
Ashburton,3 Dunlop St,3,House,1555000,S,Jellis,4/06/2016,11,3147,3,2,2,731,149,0.203830369,1935,City of ,Boroondara,City of Boroondara,-37.8666,145.0676,Southern Metropolitan,3052
Ashburton,33 Highgate Gr,4,House,1790000,PI,hockingstuart,28/05/2016,11,3147,4,2,2,514,240,0.46692607,1935,City of ,Boroondara,City of Boroondara,-37.8664,145.0772,Southern Metropolitan,3052
Ashburton,9 Pitt St,4,House,1950000,S,Tim,28/05/2016,11,3147,4,2,2,844,278,0.329383886,1940,City of ,Boroondara,City of Boroondara,-37.8715,145.0688,Southern Metropolitan,3052
Ashburton,6a Glen Rd,3,House,1662000,S,Jellis,14/05/2016,11,3147,3,2,2,351,228,0.64957265,2006,City of ,Boroondara,City of Boroondara,-37.8742,145.07,Southern Metropolitan,3052
Ashburton,23 Solway St,4,House,2220000,S,Marshall,13/05/2017,11,3147,4,3,2,480,244,0.508333333,2016,City of ,Boroondara,City of Boroondara,-37.8726,145.0716,Southern Metropolitan,3052
Ashburton,93A Ashburn Gr,4,Townhouse,1655000,S,hockingstuart,3/06/2017,10.2,3147,4,3,2,510,240,0.470588235,2013,City of ,Boroondara,City of Boroondara,-37.87159,145.0795,Southern Metropolitan,3052
Ashburton,20 Ward St,4,House,2405000,S,Jellis,3/06/2017,10.2,3147,4,2,2,604,125,0.206953642,1930,City of ,Boroondara,City of Boroondara,-37.86513,145.07919,Southern Metropolitan,3052
Ashburton,2/6 Ramu Gr,4,Townhouse,1520000,S,Jellis,12/08/2017,10.2,3147,4,3,2,267,190,0.711610487,2012,City of ,Boroondara,City of Boroondara,-37.87036,145.08471,Southern Metropolitan,3052
Ashburton,19 Ward St,3,House,2299500,S,Jellis,12/08/2017,10.2,3147,3,2,3,634,230,0.362776025,1940,City of ,Boroondara,City of Boroondara,-37.86516,145.07958,Southern Metropolitan,3052
Ashburton,69 Gloucester Rd,3,House,1555000,S,Jellis,16/09/2017,10.2,3147,3,1,4,649,101,0.155624037,1950,City of ,Boroondara,City of Boroondara,-37.87,145.08803,Southern Metropolitan,3052
Ashburton,21 Warner Av,4,House,1920000,S,Jellis,19/08/2017,10.2,3147,4,3,2,391,203,0.519181586,2016,City of ,Boroondara,City of Boroondara,-37.86664,145.08597,Southern Metropolitan,3052
Ashburton,3A Crete Av,3,House,1210000,S,Jellis,23/09/2017,10.2,3147,3,1,3,407,93,0.228501229,1955,City of ,Boroondara,City of Boroondara,-37.8696,145.0866,Southern Metropolitan,3052
Ashburton,28 Baker Pde,4,Townhouse,1650000,VB,Jellis,26/08/2017,10.2,3147,4,2,1,338,200,0.591715976,2005,City of ,Boroondara,City of Boroondara,-37.86058,145.08542,Southern Metropolitan,3052
Ashburton,59 Winton Rd,3,House,2550000,S,Marshall,26/08/2017,10.2,3147,3,2,3,1170,202,0.172649573,1950,City of ,Boroondara,City of Boroondara,-37.87253,145.0705,Southern Metropolitan,3052
Ashburton,6 Amery St,4,House,2005000,S,Marshall,14/10/2017,10.2,3147,4,2,2,572,233,0.407342657,1930,City of ,Boroondara,City of Boroondara,-37.86688,145.06925,Southern Metropolitan,3052
Ashburton,37 Karnak Rd,3,House,1870000,SP,Marshall,28/10/2017,10.2,3147,3,1,2,689,159,0.230769231,1940,City of ,Boroondara,City of Boroondara,-37.87286,145.07412,Southern Metropolitan,3052
Ashburton,55 Warner Av,3,House,1620000,S,Purplebricks,28/10/2017,10.2,3147,3,1,3,637,129,0.202511774,1947,City of ,Boroondara,City of Boroondara,-37.87044,145.08609,Southern Metropolitan,3052
Ashburton,38 Karnak Rd,4,House,2350000,SP,Marshall,9/12/2017,10.2,3147,4,2,2,626,156,0.249201278,1950,City of ,Boroondara,City of Boroondara,-37.87364,145.07263,Southern Metropolitan,3052
Ashburton,8 Maxwell St,5,House,1950000,S,Fletchers,10/02/2018,10.2,3147,5,3,,743,188,0.253028264,1930,City of ,Boroondara,City of Boroondara,-37.86903,145.0685,Southern Metropolitan,3052
Ashburton,11 Comas Gr,5,House,2850500,S,Jellis,3/03/2018,10.2,3147,5,2,2,697,317,0.454806313,2013,City of ,Boroondara,City of Boroondara,-37.87132,145.07267,Southern Metropolitan,3052
Ashwood,95 Huntingdale Rd,4,House,1100000,VB,Tim,10/12/2016,12.2,3147,3,2,2,803,152,0.189290162,1970,City of ,Monash,City of Monash,-37.8621,145.1126,Southern Metropolitan,2894
Ashwood,1/53 Winbirra Pde,4,House,1200000,SP,Purplebricks,4/03/2017,12.2,3147,4,3,2,372,201,0.540322581,2016,City of ,Monash,City of Monash,-37.8716,145.0999,Southern Metropolitan,2894
Ashwood,4/36 Queens Pde,2,Unit,600000,S,Noel,18/03/2017,12.2,3147,2,1,1,153,80,0.522875817,1970,City of ,Monash,City of Monash,-37.8696,145.0962,Southern Metropolitan,2894
Ashwood,14 Ashwood Dr,3,House,1305000,S,Jellis,25/02/2017,12.2,3147,3,1,1,760,120,0.157894737,1960,City of ,Monash,City of Monash,-37.858,145.1038,Southern Metropolitan,2894
Ashwood,1/2 Condah Ct,3,House,855000,S,Noel,25/02/2017,12.2,3147,3,2,1,320,85,0.265625,1958,City of ,Monash,City of Monash,-37.87,145.1103,Southern Metropolitan,2894
Ashwood,1/16 Raymond St,3,Townhouse,900500,S,Jellis,27/11/2016,12.2,3147,3,2,2,256,134,0.5234375,2012,City of ,Monash,City of Monash,-37.8655,145.1096,Southern Metropolitan,2894
Ashwood,17 Parkhill Dr,4,House,1240000,S,Tim,19/11/2016,12.2,3147,4,2,2,766,192,0.250652742,1950,City of ,Monash,City of Monash,-37.8629,145.1097,Southern Metropolitan,2894
Ashwood,1/7 Farmer St,2,Townhouse,700000,S,hockingstuart,7/11/2016,12.2,3147,2,1,2,367,110,0.29972752,1970,City of ,Monash,City of Monash,-37.8662,145.109,Southern Metropolitan,2894
Ashwood,1/136 High Street Rd,3,House,761000,PI,Fletchers,7/11/2016,12.2,3147,3,2,4,400,94,0.235,1950,City of ,Monash,City of Monash,-37.8675,145.106,Southern Metropolitan,2894
Ashwood,58 Ashwood Dr,3,House,1631000,S,Jellis,15/10/2016,12.2,3147,3,2,3,782,215,0.274936061,1950,City of ,Monash,City of Monash,-37.8621,145.1021,Southern Metropolitan,2894
Ashwood,3 Harold St,4,House,1500000,S,Buxton,15/10/2016,12.2,3147,4,2,1,593,255,0.430016863,1930,City of ,Monash,City of Monash,-37.8655,145.096,Southern Metropolitan,2894
Ashwood,4 Teck St,2,House,1110000,S,Fletchers,24/09/2016,12.2,3147,2,1,1,586,86,0.146757679,1950,City of ,Monash,City of Monash,-37.8683,145.1082,Southern Metropolitan,2894
Ashwood,16 Scenic Dr,5,House,1529500,S,Buxton,17/09/2016,12.2,3147,5,3,2,585,317,0.541880342,2000,City of ,Monash,City of Monash,-37.8637,145.1024,Southern Metropolitan,2894
Ashwood,35 Douglas St,3,House,1365000,S,Fletchers,10/09/2016,12.2,3147,3,1,1,792,792,1,1950,City of ,Monash,City of Monash,-37.864,145.0972,Southern Metropolitan,2894
Ashwood,2/53 Salisbury Rd,3,Townhouse,830000,S,Barry,28/08/2016,12.2,3147,2,1,2,212,130,0.613207547,2012,City of ,Monash,City of Monash,-37.8723,145.1089,Southern Metropolitan,2894
Ashwood,2/6 Murra Ct,2,Unit,700000,S,hockingstuart,22/08/2016,12.2,3147,2,1,2,192,88,0.458333333,2007,City of ,Monash,City of Monash,-37.8709,145.102,Southern Metropolitan,2894
Ashwood,4 Scenic Dr,4,House,1500000,S,Fletchers,6/08/2016,12.2,3147,2,2,2,621,203,0.32689211,2000,City of ,Monash,City of Monash,-37.8647,145.1023,Southern Metropolitan,2894
Ashwood,18 Montrose St,2,House,1075000,VB,Jellis,4/06/2016,12.2,3147,2,1,2,695,114,0.164028777,1950,City of ,Monash,City of Monash,-37.8694,145.0944,Southern Metropolitan,2894
Ashwood,4 Newbury Ct,3,House,1200000,VB,Buxton,28/05/2016,12.2,3147,3,2,2,839,198,0.235995232,1970,City of ,Monash,City of Monash,-37.8614,145.1098,Southern Metropolitan,2894
Ashwood,1/7 Murra Ct,2,Unit,690000,S,Ray,14/05/2016,12.2,3147,2,1,1,216,90,0.416666667,2003,City of ,Monash,City of Monash,-37.8711,145.1017,Southern Metropolitan,2894
Ashwood,5 Harcourt St,2,House,1495000,S,Barry,8/04/2017,12.2,3147,2,1,2,803,95,0.118306351,1950,City of ,Monash,City of Monash,-37.8683,145.1064,Southern Metropolitan,2894
Ashwood,1/7 Queens Pde,2,Unit,822000,S,Marshall,8/04/2017,12.2,3147,2,1,1,78,59,0.756410256,1970,City of ,Monash,City of Monash,-37.8677,145.0981,Southern Metropolitan,2894
Ashwood,2/5 Parkhill Dr,3,Unit,890000,S,Jellis,20/05/2017,12.2,3147,3,2,2,235,130,0.553191489,2006,City of ,Monash,City of Monash,-37.8625,145.1083,Southern Metropolitan,2894
Ashwood,47 Ashwood Dr,4,House,1680000,S,Jellis,17/06/2017,10.2,3147,4,3,3,726,194,0.267217631,1958,City of ,Monash,City of Monash,-37.85842,145.10288,Southern Metropolitan,2894
Ashwood,2/7 Murra Ct,3,House,860000,S,Purplebricks,17/06/2017,10.2,3147,3,2,2,280,115,0.410714286,1990,City of ,Monash,City of Monash,-37.87105,145.10198,Southern Metropolitan,2894
Ashwood,10 Kiewa St,3,House,1420000,S,Fletchers,15/07/2017,10.2,3147,3,1,1,726,130,0.179063361,1965,City of ,Monash,City of Monash,-37.86173,145.11074,Southern Metropolitan,2894
Ashwood,5 Kiewa St,4,House,1450000,S,Fletchers,22/07/2017,10.2,3147,4,2,1,803,154,0.191780822,1965,City of ,Monash,City of Monash,-37.86162,145.11042,Southern Metropolitan,2894
Ashwood,47B Vannam Dr,3,Townhouse,1060000,S,Buxton,22/07/2017,10.2,3147,3,2,2,343,1,0.002915452,2000,City of ,Monash,City of Monash,-37.86324,145.10289,Southern Metropolitan,2894
Ashwood,7 Barrington Dr,4,House,1540000,S,Jellis,29/07/2017,10.2,3147,4,2,3,668,205,0.306886228,1970,City of ,Monash,City of Monash,-37.86096,145.10026,Southern Metropolitan,2894
Ashwood,33 Douglas St,3,House,1575000,S,Jellis,19/08/2017,10.2,3147,3,1,2,787,115,0.146124524,1955,City of ,Monash,City of Monash,-37.86394,145.09702,Southern Metropolitan,2894
Ashwood,28 Carlyle St,4,House,1360000,PI,Buxton,9/12/2017,10.2,3147,4,2,2,701,183,0.261055635,1950,City of ,Monash,City of Monash,-37.86138,145.09694,Southern Metropolitan,2894
Ashwood,56 Cleveland Rd,3,House,1150000,VB,Jellis,17/03/2018,10.2,3147,3,1,3,621,132,0.212560386,1960,City of ,Monash,City of Monash,-37.87229,145.10489,Southern Metropolitan,2894
Ashwood,22 Carlyle St,3,House,1554000,S,hockingstuart,24/02/2018,10.2,3147,3,2,4,698,154,0.220630372,1945,City of ,Monash,City of Monash,-37.86131,145.09638,Southern Metropolitan,2894
Ashwood,41 Closter Av,4,House,1850000,S,Buxton,24/02/2018,10.2,3147,4,3,2,746,164,0.219839142,1960,City of ,Monash,City of Monash,-37.86491,145.09752,Southern Metropolitan,2894
Aspendale,14 Ebb St,3,House,970000,VB,hockingstuart,22/07/2017,21.5,3195,4,2,2,612,154,0.251633987,1960,City of ,Kingston,City of Kingston,-38.01596,145.09932,South-Eastern Metropolitan,2824
Aspendale,58 Station St,3,House,780000,PI,Ray,9/09/2017,21.5,3195,3,1,2,292,91,0.311643836,1955,City of ,Kingston,City of Kingston,-38.01908,145.09702,South-Eastern Metropolitan,2824
Aspendale,34 Albany Cr,3,House,1000000,S,Buxton,6/01/2018,21.5,3195,3,1,2,556,146,0.262589928,1970,City of ,Kingston,City of Kingston,-38.02357,145.10492,South-Eastern Metropolitan,2824
Aspendale,65 Albany Cr,3,House,1070000,S,hockingstuart/hockingstuart,9/12/2017,21.5,3195,3,2,4,529,128,0.241965974,1960,City of ,Kingston,City of Kingston,-38.02452,145.10695,South-Eastern Metropolitan,2824
Aspendale,11B Foam St,3,Townhouse,1095000,S,Buxton,3/03/2018,21.5,3195,3,2,1,284,122,0.429577465,2012,City of ,Kingston,City of Kingston,-38.01646,145.09967,South-Eastern Metropolitan,2824
Aspendale,3 Wanda Ct,4,House,940000,S,hockingstuart,17/03/2018,21.5,3195,4,2,2,635,142,0.223622047,1995,City of ,Kingston,City of Kingston,-38.02416,145.11053,South-Eastern Metropolitan,2824
Aspendale Gardens,3 Rochelle Ct,4,House,867500,S,Ray,9/12/2017,21.5,3195,4,2,2,529,137,0.258979206,1990,City of ,Kingston,City of Kingston,-38.02704,145.1291,South-Eastern Metropolitan,2243
Aspendale Gardens,44 Sutherland Av,3,House,811250,SP,Area,17/03/2018,21.5,3195,3,1,2,542,104,0.191881919,1980,City of ,Kingston,City of Kingston,-38.01663,145.11742,South-Eastern Metropolitan,2243
Attwood,31 Stonebridge Wy,4,House,941000,S,Barry,21/10/2017,16.5,3049,4,2,2,760,236,0.310526316,1999,City of ,Hume,City of Hume,-37.67355,144.89234,Northern Metropolitan,1130
Attwood,40 Threadneedle St,4,House,840000,VB,Barry,28/10/2017,16.5,3049,4,2,2,600,274,0.456666667,2011,City of ,Hume,City of Hume,-37.67087,144.87814,Northern Metropolitan,1130
Attwood,3 Wilton Pl,4,House,714000,S,YPA,28/10/2017,16.5,3049,4,1,2,656,116,0.176829268,1982,City of ,Hume,City of Hume,-37.67373,144.89627,Northern Metropolitan,1130
Attwood,12 Chandos Pl,4,House,820000,VB,Barry,9/12/2017,16.5,3049,4,2,3,657,36,0.054794521,2004,City of ,Hume,City of Hume,-37.66884,144.88636,Northern Metropolitan,1130
Attwood,3 Willowbank Wy,4,House,915000,SP,Barry,9/12/2017,16.5,3049,4,2,2,704,278,0.394886364,2000,City of ,Hume,City of Hume,-37.67061,144.89095,Northern Metropolitan,1130
Attwood,21 Threadneedle St,4,House,805000,PI,Barry,24/02/2018,16.5,3049,4,2,2,630,269,0.426984127,2000,City of ,Hume,City of Hume,-37.6712,144.87911,Northern Metropolitan,1130
Avondale Heights,3 Clive Ct,4,House,950000,S,Moonee,10/12/2016,10.5,3034,4,3,3,761,281,0.369250986,1970,City of ,Moonee Valley,City of Moonee Valley,-37.7524,144.8714,Western Metropolitan,4502
Avondale Heights,157 Canning St,3,Townhouse,851000,S,Nelson,3/12/2016,10.5,3034,3,3,1,557,181,0.324955117,2017,City of ,Moonee Valley,City of Moonee Valley,-37.77,144.8572,Western Metropolitan,4502
Avondale Heights,9 Willow Dr,3,House,850000,S,Moonee,18/03/2017,10.5,3034,3,1,2,766,149,0.194516971,,City of ,Moonee Valley,City of Moonee Valley,-37.7522,144.8518,Western Metropolitan,4502
Avondale Heights,2 Drake Ct,3,House,875000,S,Edward,25/02/2017,10.5,3034,3,1,3,812,117,0.14408867,1960,City of ,Moonee Valley,City of Moonee Valley,-37.765,144.8578,Western Metropolitan,4502
Avondale Heights,10 Skewes St,3,House,805000,S,Nelson,27/11/2016,10.5,3034,3,2,2,593,103,0.173693086,1970,City of ,Moonee Valley,City of Moonee Valley,-37.7607,144.8581,Western Metropolitan,4502
Avondale Heights,97 Military Rd,3,House,627500,SP,Moonee,8/10/2016,10.5,3034,3,1,1,550,143,0.26,1970,City of ,Moonee Valley,City of Moonee Valley,-37.7632,144.8622,Western Metropolitan,4502
Avondale Heights,1/24 Bordeaux St,2,House,522500,S,Nelson,24/09/2016,10.5,3034,2,1,1,220,101,0.459090909,1995,City of ,Moonee Valley,City of Moonee Valley,-37.756,144.8641,Western Metropolitan,4502
Avondale Heights,72 Military Rd,4,House,680000,PI,Nelson,24/09/2016,10.5,3034,4,2,2,554,140,0.252707581,1960,City of ,Moonee Valley,City of Moonee Valley,-37.7649,144.8633,Western Metropolitan,4502
Avondale Heights,8 Norma Ct,3,House,850000,S,Moonee,3/09/2016,10.5,3034,3,1,1,593,118,0.198988196,1970,City of ,Moonee Valley,City of Moonee Valley,-37.7677,144.8674,Western Metropolitan,4502
Avondale Heights,68 Thompson St,3,House,680000,S,Nelson,6/08/2016,10.5,3034,3,1,2,570,120,0.210526316,1970,City of ,Moonee Valley,City of Moonee Valley,-37.7591,144.8542,Western Metropolitan,4502
Avondale Heights,109 North Rd,4,House,762000,S,Nelson,26/07/2016,10.5,3034,4,2,2,589,150,0.25466893,1961,City of ,Moonee Valley,City of Moonee Valley,-37.7573,144.8534,Western Metropolitan,4502
Avondale Heights,2 Arbor Tce,4,House,1155000,S,Nelson,4/06/2016,10.5,3034,3,2,2,569,225,0.39543058,2008,City of ,Moonee Valley,City of Moonee Valley,-37.7654,144.8655,Western Metropolitan,4502
Avondale Heights,43 Skewes St,3,House,634000,S,Nelson,28/05/2016,10.5,3034,4,2,1,582,153,0.262886598,1950,City of ,Moonee Valley,City of Moonee Valley,-37.7584,144.8568,Western Metropolitan,4502
Avondale Heights,8 Herbert St,3,House,705000,S,Nelson,22/05/2016,10.5,3034,3,1,1,581,106,0.182444062,1960,City of ,Moonee Valley,City of Moonee Valley,-37.7691,144.8575,Western Metropolitan,4502
Avondale Heights,2 Hillman Ct,4,House,1100000,VB,Brad,22/05/2016,10.5,3034,4,3,2,873,395,0.452462772,1992,City of ,Moonee Valley,City of Moonee Valley,-37.7609,144.8639,Western Metropolitan,4502
Avondale Heights,20 Westminster Dr,3,House,892500,S,Nelson,22/05/2016,10.5,3034,3,1,1,586,118,0.201365188,1965,City of ,Moonee Valley,City of Moonee Valley,-37.7642,144.8603,Western Metropolitan,4502
Avondale Heights,33a Deutscher St,3,Unit,765000,S,Moonee,6/05/2017,10.5,3034,3,2,1,292,150,0.51369863,2008,City of ,Moonee Valley,City of Moonee Valley,-37.7593,144.8561,Western Metropolitan,4502
Avondale Heights,16 Cortina Pl,4,House,1300000,SP,Nelson,20/05/2017,10.5,3034,4,3,2,656,322,0.490853659,1990,City of ,Moonee Valley,City of Moonee Valley,-37.7522,144.8659,Western Metropolitan,4502
Avondale Heights,53 Doyle St,3,House,760000,SP,Moonee,22/04/2017,10.5,3034,3,1,1,585,99,0.169230769,1960,City of ,Moonee Valley,City of Moonee Valley,-37.7574,144.8574,Western Metropolitan,4502
Avondale Heights,24 Doyle St,3,House,750000,SP,Moonee,17/06/2017,9.5,3034,3,1,1,585,30,0.051282051,1965,City of ,Moonee Valley,City of Moonee Valley,-37.75986,144.85886,Western Metropolitan,4502
Avondale Heights,7A Downland Sq,4,House,773000,S,Moonee,24/06/2017,9.5,3034,4,2,2,344,235,0.683139535,2004,City of ,Moonee Valley,City of Moonee Valley,-37.75861,144.86687,Western Metropolitan,4502
Avondale Heights,6 Ridley Av,3,House,720000,PI,Harcourts,8/07/2017,9.5,3034,3,1,1,582,110,0.189003436,1965,City of ,Moonee Valley,City of Moonee Valley,-37.76063,144.8603,Western Metropolitan,4502
Avondale Heights,132 Templewood Cr,3,House,1107500,S,Nelson,8/07/2017,9.5,3034,3,3,1,668,190,0.284431138,2014,City of ,Moonee Valley,City of Moonee Valley,-37.75962,144.86675,Western Metropolitan,4502
Avondale Heights,9 Thompson St,4,House,934000,S,Moonee,15/07/2017,9.5,3034,4,2,1,581,163,0.280550775,1975,City of ,Moonee Valley,City of Moonee Valley,-37.76421,144.85594,Western Metropolitan,4502
Avondale Heights,49 Ridge Dr,3,House,750000,PI,Barry,22/07/2017,9.5,3034,3,1,2,561,103,0.183600713,1990,City of ,Moonee Valley,City of Moonee Valley,-37.7528,144.85585,Western Metropolitan,4502
Avondale Heights,55 Ridge Dr,5,House,800000,VB,Barry,22/07/2017,9.5,3034,5,2,3,577,166,0.287694974,1985,City of ,Moonee Valley,City of Moonee Valley,-37.75261,144.85631,Western Metropolitan,4502
Avondale Heights,68 MacEy Av,3,House,785000,PI,Nelson,14/10/2017,9.5,3034,3,1,1,595,96,0.161344538,1950,City of ,Moonee Valley,City of Moonee Valley,-37.76342,144.86305,Western Metropolitan,4502
Avondale Heights,41 Montpellier Dr,3,House,900000,S,Moonee,21/10/2017,9.5,3034,3,1,1,550,115,0.209090909,1975,City of ,Moonee Valley,City of Moonee Valley,-37.75486,144.8655,Western Metropolitan,4502
Avondale Heights,14 Hanley St,3,House,865000,SP,Brad,28/10/2017,9.5,3034,3,1,2,590,118,0.2,1960,City of ,Moonee Valley,City of Moonee Valley,-37.76092,144.85603,Western Metropolitan,4502
Avondale Heights,43 Hanley St,2,House,780000,S,Barry,28/10/2017,9.5,3034,2,1,,588,80,0.136054422,1960,City of ,Moonee Valley,City of Moonee Valley,-37.7588,144.85474,Western Metropolitan,4502
Avondale Heights,8 Hanley St,3,House,801000,S,Hodges,28/10/2017,9.5,3034,3,2,2,580,133,0.229310345,1950,City of ,Moonee Valley,City of Moonee Valley,-37.76132,144.85619,Western Metropolitan,4502
Avondale Heights,6 Holden Av,3,House,702500,S,Nelson,28/10/2017,9.5,3034,3,1,1,201,124,0.616915423,2005,City of ,Moonee Valley,City of Moonee Valley,-37.75728,144.85825,Western Metropolitan,4502
Avondale Heights,45 Intervale Dr,4,House,900000,VB,Nelson,28/10/2017,9.5,3034,4,3,1,612,117,0.191176471,1970,City of ,Moonee Valley,City of Moonee Valley,-37.7526,144.85488,Western Metropolitan,4502
Avondale Heights,3 Karen Ct,3,House,1100000,SP,Moonee,11/11/2017,9.5,3034,3,2,2,668,153,0.229041916,1980,City of ,Moonee Valley,City of Moonee Valley,-37.7593,144.871,Western Metropolitan,4502
Avondale Heights,42 Ridge Dr,3,House,790000,VB,LITTLE,11/11/2017,9.5,3034,3,2,2,537,140,0.260707635,1970,City of ,Moonee Valley,City of Moonee Valley,-37.7528,144.8567,Western Metropolitan,4502
Avondale Heights,16 Sydney St,4,House,1068000,S,Nelson,18/11/2017,9.5,3034,4,2,1,604,141,0.233443709,1970,City of ,Moonee Valley,City of Moonee Valley,-37.7687,144.8602,Western Metropolitan,4502
Avondale Heights,191 Military Rd,3,House,727500,S,Barry,6/01/2018,9.5,3034,3,1,1,641,137,0.213728549,1970,City of ,Moonee Valley,City of Moonee Valley,-37.7576,144.85979,Western Metropolitan,4502
Avondale Heights,39 Brown St,4,House,970000,SP,Moonee,9/12/2017,9.5,3034,4,2,2,534,181,0.338951311,2000,City of ,Moonee Valley,City of Moonee Valley,-37.76643,144.85492,Western Metropolitan,4502
Avondale Heights,18 Westminster Dr,3,House,730000,S,Moonee,3/02/2018,9.5,3034,3,1,2,409,132,0.322738386,1975,City of ,Moonee Valley,City of Moonee Valley,-37.76406,144.86071,Western Metropolitan,4502
Avondale Heights,9 Brentwood Dr,3,House,810000,PI,Moonee,24/02/2018,9.5,3034,3,1,,525,105,0.2,1960,City of ,Moonee Valley,City of Moonee Valley,-37.77278,144.85418,Western Metropolitan,4502
Bacchus Marsh,5 Munro Ct,3,House,412000,S,FN,7/10/2017,37.5,3340,3,2,2,818,129,0.157701711,1990,City of ,MooraboolShireCouncil,City of MooraboolShireCouncil,-37.66869,144.42379,Western Victoria,2871
Balaclava,1/17 Albion St,2,House,981000,S,Buxton,25/02/2017,6.6,3183,2,1,0,159,84,0.528301887,1930,City of ,Port Phillip,City of Port Phillip,-37.874,144.9933,Southern Metropolitan,2952
Balaclava,10 Grosvenor St,3,House,1690000,S,McGrath,25/02/2017,6.6,3183,3,2,2,339,159,0.469026549,1890,City of ,Port Phillip,City of Port Phillip,-37.872,144.9909,Southern Metropolitan,2952
Balaclava,18 Linton St,4,House,1819000,S,Gary,3/09/2016,6.6,3183,3,2,1,244,180,0.737704918,1900,City of ,Port Phillip,City of Port Phillip,-37.8668,144.9928,Southern Metropolitan,2952
Balaclava,3/33 Gourlay St,2,Unit,540000,VB,McGrath,27/06/2016,6.6,3183,2,1,1,483,51,0.105590062,1970,City of ,Port Phillip,City of Port Phillip,-37.8727,144.9969,Southern Metropolitan,2952
Balaclava,6 Blenheim St,3,House,1193000,S,McGrath,18/06/2016,6.6,3183,3,1,1,178,100,0.561797753,1920,City of ,Port Phillip,City of Port Phillip,-37.8663,144.9948,Southern Metropolitan,2952
Balaclava,16/109 Hotham St,2,Unit,600000,VB,Buxton,3/09/2017,6.4,3183,2,1,1,2283,85,0.037231713,1980,City of ,Port Phillip,City of Port Phillip,-37.87078,144.99898,Southern Metropolitan,2952
Balaclava,33 Chusan St,2,House,1008000,S,McGrath,7/10/2017,6.4,3183,2,1,,143,73,0.51048951,1900,City of ,Port Phillip,City of Port Phillip,-37.86771,144.99885,Southern Metropolitan,2952
Balaclava,33 Marlborough St,2,House,1170000,SP,hockingstuart,9/12/2017,6.4,3183,2,1,1,156,88,0.564102564,1890,City of ,Port Phillip,City of Port Phillip,-37.86955,144.99218,Southern Metropolitan,2952
Balaclava,11 Nelson St,2,House,1062000,PI,McGrath,17/02/2018,6.4,3183,2,1,,240,85,0.354166667,1900,City of ,Port Phillip,City of Port Phillip,-37.86631,144.99358,Southern Metropolitan,2952
Balaclava,17 Brunning St,3,House,1467500,S,McGrath,24/02/2018,6.4,3183,3,1,,222,108,0.486486486,1910,City of ,Port Phillip,City of Port Phillip,-37.8731,144.99168,Southern Metropolitan,2952
Balaclava,56 Gourlay St,4,House,1550000,S,Whiting,24/02/2018,6.4,3183,4,2,2,467,163,0.349036403,1900,City of ,Port Phillip,City of Port Phillip,-37.87245,144.9976,Southern Metropolitan,2952
Balaclava,42 Rosamond St,2,House,1160000,S,McGrath,24/02/2018,6.4,3183,2,1,,178,98,0.550561798,1915,City of ,Port Phillip,City of Port Phillip,-37.86991,144.99244,Southern Metropolitan,2952
Balwyn,1/18 Belmore Rd,3,House,905000,S,Kay,10/12/2016,9.7,3103,3,1,2,281,150,0.533807829,1995,City of ,Boroondara,City of Boroondara,-37.8013,145.0652,Southern Metropolitan,5682
Balwyn,316 Belmore Rd,4,House,1750000,PI,Ascend,10/12/2016,9.7,3103,4,3,2,453,308,0.6799117,2016,City of ,Boroondara,City of Boroondara,-37.8044,145.1006,Southern Metropolitan,5682
Balwyn,11/22 Brenbeal St,2,Townhouse,760000,S,Christopher,10/12/2016,9.7,3103,2,1,1,121,100,0.826446281,1960,City of ,Boroondara,City of Boroondara,-37.8112,145.0881,Southern Metropolitan,5682
Balwyn,3/3 Iramoo St,3,Townhouse,1367000,S,Jellis,10/12/2016,9.7,3103,3,2,2,219,164,0.748858447,2003,City of ,Boroondara,City of Boroondara,-37.8125,145.0849,Southern Metropolitan,5682
Balwyn,2/74 Balwyn Rd,3,Unit,1070000,SA,Philip,3/12/2016,9.7,3103,3,2,2,206,112,0.54368932,1998,City of ,Boroondara,City of Boroondara,-37.8161,145.0812,Southern Metropolitan,5682
Balwyn,112 Belmore Rd,5,House,2570000,PI,RT,3/12/2016,9.7,3103,5,3,2,715,420,0.587412587,2009,City of ,Boroondara,City of Boroondara,-37.8028,145.0768,Southern Metropolitan,5682
Balwyn,27 Bevan St,4,House,2400000,VB,RW,3/12/2016,9.7,3103,4,2,2,744,226,0.303763441,1985,City of ,Boroondara,City of Boroondara,-37.8147,145.0748,Southern Metropolitan,5682
Balwyn,129 Gordon St,3,House,2200000,S,North,3/12/2016,9.7,3103,3,3,2,651,266,0.408602151,,City of ,Boroondara,City of Boroondara,-37.8085,145.0764,Southern Metropolitan,5682
Balwyn,4 Melba Ct,5,House,3250000,PI,hockingstuart,3/12/2016,9.7,3103,5,5,2,651,410,0.629800307,,City of ,Boroondara,City of Boroondara,-37.8071,145.0908,Southern Metropolitan,5682
Balwyn,5/14 Parring Rd,2,Unit,806000,S,Noel,3/12/2016,9.7,3103,2,1,1,122,97,0.795081967,1977,City of ,Boroondara,City of Boroondara,-37.8124,145.0916,Southern Metropolitan,5682
Balwyn,349 Union Rd,6,House,4000000,VB,Jellis,3/12/2016,9.7,3103,6,4,7,2051,449,0.218917601,1935,City of ,Boroondara,City of Boroondara,-37.8051,145.1016,Southern Metropolitan,5682
Balwyn,22 Yongala St,5,House,2250000,PI,Noel,3/12/2016,9.7,3103,5,3,2,600,356,0.593333333,2006,City of ,Boroondara,City of Boroondara,-37.8061,145.0801,Southern Metropolitan,5682
Balwyn,165 Balwyn Rd,4,House,1900000,S,Mandy,27/11/2016,9.7,3103,4,2,1,665,155,0.233082707,1940,City of ,Boroondara,City of Boroondara,-37.8057,145.0825,Southern Metropolitan,5682
Balwyn,17 Knutsford St,3,House,3401000,S,Jellis,27/11/2016,9.7,3103,3,2,1,706,166,0.235127479,1930,City of ,Boroondara,City of Boroondara,-37.8161,145.0748,Southern Metropolitan,5682
